id,subzone,planning_area,region,latitude,longitude,original_type,rank,venue_name,venue_address,venue_id,avg_weekday_footfall,avg_weekend_footfall,created_at,updated_at,venue_type
1370,COMPASSVALE,SENGKANG,NORTH-EAST REGION,1.3830173,103.8918855,commercial.clothing,null,Uniqlo,"Uniqlo, 70 Compassvale Bow, Singapore 544692, Singapore",null,null,null,2025-04-12 16:20:28.647465,2025-04-12 16:20:28.647465,APPAREL
2756,SENGKANG TOWN CENTRE,SENGKANG,NORTH-EAST REGION,1.3918825,103.8953634,commercial.food_and_drink,null,Moji Bakery,"Moji Bakery, Sengkang Square, Singapore 545078, Singapore",null,null,null,2025-04-12 16:24:42.454988,2025-04-12 16:24:42.454988,RESTAURANT
2758,COMPASSVALE,SENGKANG,NORTH-EAST REGION,1.3861334,103.8932891,commercial.food_and_drink,null,Icakes,"Icakes, 279 Sengkang East Avenue, Singapore 540279, Singapore",null,null,null,2025-04-12 16:24:42.512831,2025-04-12 16:24:42.512831,RESTAURANT
2760,SENGKANG TOWN CENTRE,SENGKANG,NORTH-EAST REGION,1.3921172,103.8949348,commercial.food_and_drink,null,BreadTalk,"BreadTalk, Sengkang Square, Singapore 545078, Singapore",null,null,null,2025-04-12 16:24:42.570028,2025-04-12 16:24:42.570028,RESTAURANT
2761,SENGKANG TOWN CENTRE,SENGKANG,NORTH-EAST REGION,1.3922735,103.8950622,commercial.food_and_drink,null,The Jelly Hearts,"The Jelly Hearts, 1 Sengkang Square, Singapore 545078, Singapore",null,null,null,2025-04-12 16:24:42.600412,2025-04-12 16:24:42.600412,RESTAURANT
2762,SENGKANG TOWN CENTRE,SENGKANG,NORTH-EAST REGION,1.3917941,103.8951906,commercial.food_and_drink,null,Polar,"Polar, Sengkang Bus Interchange, Singapore 545077, Singapore",null,null,null,2025-04-12 16:24:42.627656,2025-04-12 16:24:42.627656,RESTAURANT
2763,SENGKANG TOWN CENTRE,SENGKANG,NORTH-EAST REGION,1.3919784,103.8948799,commercial.food_and_drink,null,Four Leaves,"Four Leaves, Sengkang Square, Singapore 545078, Singapore",null,null,null,2025-04-12 16:24:42.662248,2025-04-12 16:24:42.662248,RESTAURANT
2764,SENGKANG TOWN CENTRE,SENGKANG,NORTH-EAST REGION,1.3921244,103.8949987,commercial.food_and_drink,null,Famous Amos,"Famous Amos, Sengkang Square, Singapore 545078, Singapore",null,null,null,2025-04-12 16:24:42.691742,2025-04-12 16:24:42.691742,RESTAURANT
2765,SENGKANG TOWN CENTRE,SENGKANG,NORTH-EAST REGION,1.3919456,103.8951001,commercial.food_and_drink,null,Annabella Patisserie,"Annabella Patisserie, Sengkang Square, Singapore 545078, Singapore",null,null,null,2025-04-12 16:24:42.722217,2025-04-12 16:24:42.722217,RESTAURANT
7059,SENGKANG TOWN CENTRE,SENGKANG,NORTH-EAST REGION,1.3889211,103.8929112,childcare,null,Little Footprints Preschool Sengkang 201,"Little Footprints Preschool Sengkang 201, 201A Compassvale Drive, Singapore 541201, Singapore",null,null,null,2025-04-12 16:30:00.277941,2025-04-12 16:30:00.277941,SCHOOL
7060,RIVERVALE,SENGKANG,NORTH-EAST REGION,1.3842274,103.9017057,childcare,null,Little World Childcare and Development Centre,"Little World Childcare and Development Centre, 113 Rivervale Walk, Singapore 540113, Singapore",null,null,null,2025-04-12 16:30:00.310147,2025-04-12 16:30:00.310147,SCHOOL
7062,SENGKANG TOWN CENTRE,SENGKANG,NORTH-EAST REGION,1.3864533,103.8968032,childcare,null,PCF Sparkletots @ Sengkang Central Blk 206A,"PCF Sparkletots @ Sengkang Central Blk 206A, 206A Compassvale Lane, Singapore 541206, Singapore",null,null,null,2025-04-12 16:30:00.392811,2025-04-12 16:30:00.392811,SCHOOL
7063,SENGKANG TOWN CENTRE,SENGKANG,NORTH-EAST REGION,1.3883891,103.8971317,childcare,null,Spright Academy Sengkang,"Spright Academy Sengkang, 223A Compassvale Walk, Singapore 541223, Singapore",null,null,null,2025-04-12 16:30:00.422099,2025-04-12 16:30:00.422099,SCHOOL
7067,SENGKANG TOWN CENTRE,SENGKANG,NORTH-EAST REGION,1.3967804,103.8963126,childcare,null,Agape Little Uni @ Compassvale Pte Ltd,"Agape Little Uni @ Compassvale Pte Ltd, 293B Compassvale Crescent, Singapore 542293, Singapore",null,null,null,2025-04-12 16:30:00.555971,2025-04-12 16:30:00.555971,SCHOOL
7086,SENGKANG TOWN CENTRE,SENGKANG,NORTH-EAST REGION,1.3882905,103.9013792,childcare,null,My First Skool,"My First Skool, Punggol Road, Singapore 540230, Singapore",null,null,null,2025-04-12 16:30:01.230667,2025-04-12 16:30:01.230667,SCHOOL
2,SENGKANG TOWN CENTRE,SENGKANG,NORTH-EAST REGION,1.3928356,103.8938986,activity.community_center,null,Sengkang Community Club,"Sengkang Community Club, 2 Sengkang Square, Singapore 545025, Singapore",null,null,null,2025-04-13 00:05:59,2025-04-13 00:06:00,CLUBS
70,SENGKANG TOWN CENTRE,SENGKANG,NORTH-EAST REGION,1.3890717,103.8973868,activity.community_center,null,Sengkang Family Service Centre,"Sengkang Family Service Centre, 223D Compassvale Walk, Singapore 544223, Singapore",null,null,null,2025-04-12 16:15:23.897812,2025-04-12 16:15:23.897812,CLUBS
130,BEDOK SOUTH,BEDOK,EAST REGION,1.32428785,103.936065986497,activity.community_center,null,Bedok Community Centre,"Bedok Community Centre, 850 New Upper Changi Road, Singapore 467352, Singapore",null,null,null,2025-04-12 16:15:30.594604,2025-04-12 16:15:30.594604,CLUBS
131,SIMEI,TAMPINES,EAST REGION,1.34498415,103.955139765624,activity.community_center,null,Changi Simei Community Club,"Changi Simei Community Club, 10 Simei Street 2, Singapore 529915, Singapore",null,null,null,2025-04-12 16:15:30.660208,2025-04-12 16:15:30.660208,CLUBS
132,GEYLANG EAST,GEYLANG,CENTRAL REGION,1.31100515,103.897930697833,activity.community_center,null,Geylang Serai Community Club,"Geylang Serai Community Club, 99 Haig Road, Singapore 438748, Singapore",null,null,null,2025-04-12 16:15:30.701884,2025-04-12 16:15:30.701884,CLUBS
133,BOON KENG,KALLANG,CENTRAL REGION,1.3156325,103.87241611319,activity.community_center,null,Geylang West Community Club,"Geylang West Community Club, 1205 Upper Boon Keng Road, Singapore 387311, Singapore",null,null,null,2025-04-12 16:15:30.748539,2025-04-12 16:15:30.748539,CLUBS
134,BEDOK NORTH,BEDOK,EAST REGION,1.3333861,103.92688745493,activity.community_center,null,Kaki Bukit Community Centre,"Kaki Bukit Community Centre, 670 Bedok North Street 3, Singapore 469627, Singapore",null,null,null,2025-04-12 16:15:30.785133,2025-04-12 16:15:30.785133,CLUBS
135,GEYLANG EAST,GEYLANG,CENTRAL REGION,1.317851,103.900756144499,activity.community_center,null,Kampong Ubi Community Centre,"Kampong Ubi Community Centre, 10 Jalan Ubi, Singapore 409075, Singapore",null,null,null,2025-04-12 16:15:30.829648,2025-04-12 16:15:30.829648,CLUBS
7802,SEMBAWANG SPRINGS,SEMBAWANG,NORTH REGION,1.44006375,103.825223646806,service.vehicle.fuel,null,SPC,"SPC, Sembawang Road, Singapore 758456, Singapore",null,null,null,2025-04-12 16:32:07.690834,2025-04-12 16:32:07.690834,VEHICLE
7803,SEMBAWANG SPRINGS,SEMBAWANG,NORTH REGION,1.4404093,103.82510095,service.vehicle.fuel,null,Esso,"Esso, Sembawang Road, Singapore 758456, Singapore",null,null,null,2025-04-12 16:32:07.725051,2025-04-12 16:32:07.725051,VEHICLE
7805,CORONATION ROAD,BUKIT TIMAH,CENTRAL REGION,1.3247331,103.808614691051,service.vehicle.fuel,null,Sinopec Bukit Timah,"Sinopec Bukit Timah, 623A Bukit Timah Road, Singapore 269733, Singapore",null,null,null,2025-04-12 16:32:07.783012,2025-04-12 16:32:07.783012,VEHICLE
7806,SWISS CLUB,BUKIT TIMAH,CENTRAL REGION,1.3352487,103.786747991882,service.vehicle.fuel,null,Caltex,"Caltex, Binjai Park, Singapore 589821, Singapore",null,null,null,2025-04-12 16:32:07.812408,2025-04-12 16:32:07.812408,VEHICLE
7807,WOODLANDS WEST,WOODLANDS,NORTH REGION,1.43829385,103.775420339926,service.vehicle.fuel,null,Shell,"Shell, Marsiling Road, Singapore 732187, Singapore",null,null,null,2025-04-12 16:32:07.852951,2025-04-12 16:32:07.852951,VEHICLE
7808,SEMBAWANG SPRINGS,SEMBAWANG,NORTH REGION,1.4405359,103.824408715163,service.vehicle.fuel,null,Shell,"Shell, Sembawang Road, Singapore 758456, Singapore",null,null,null,2025-04-12 16:32:07.880334,2025-04-12 16:32:07.880334,VEHICLE
7811,FAJAR,BUKIT PANJANG,WEST REGION,1.3833432,103.772684820383,service.vehicle.fuel,null,SPC Bukit Panjang,"SPC Bukit Panjang, Bukit Panjang Ring Road, Singapore 679944, Singapore",null,null,null,2025-04-12 16:32:07.977839,2025-04-12 16:32:07.977839,VEHICLE
7812,KRANJI,SUNGEI KADUT,NORTH REGION,1.4342533,103.762021377415,service.vehicle.fuel,null,Esso,"Esso, Woodlands Road, Singapore 738782, Singapore",null,null,null,2025-04-12 16:32:08.00733,2025-04-12 16:32:08.00733,VEHICLE
38,COMPASSVALE,SENGKANG,NORTH-EAST REGION,1.3822728,103.8926052,activity.community_center,null,Buangkok Community Centre,"Buangkok Community Centre, 70 Compassvale Bow, Singapore 544692, Singapore",null,null,null,2025-04-12 16:15:22.243616,2025-04-12 16:15:22.243616,CLUBS
54,RIVERVALE,SENGKANG,NORTH-EAST REGION,1.38514245,103.902353428337,activity.community_center,null,Rivervale Community Club,"Rivervale Community Club, 2 Rivervale Close, Singapore 544583, Singapore",null,null,null,2025-04-12 16:15:23.032815,2025-04-12 16:15:23.032815,CLUBS
56,RIVERVALE,SENGKANG,NORTH-EAST REGION,1.3933659,103.9020132,activity.community_center,null,Rivervale Community Centre,"Rivervale Community Centre, 193 Rivervale Drive, Singapore 540193, Singapore",null,null,null,2025-04-12 16:15:23.142439,2025-04-12 16:15:23.142439,CLUBS
60,SENGKANG TOWN CENTRE,SENGKANG,NORTH-EAST REGION,1.3871461,103.8968024,activity.community_center,null,Sengkang Family Service Centre @206B,"Sengkang Family Service Centre @206B, 206B Compassvale Lane, Singapore 542206, Singapore",null,null,null,2025-04-12 16:15:23.326681,2025-04-12 16:15:23.326681,CLUBS
62,ANCHORVALE,SENGKANG,NORTH-EAST REGION,1.3957604,103.8882269,activity.community_center,null,Sengkang West Zone K CC,"Sengkang West Zone K CC, 326C Anchorvale Road, Singapore 543326, Singapore",null,null,null,2025-04-12 16:15:23.418627,2025-04-12 16:15:23.418627,CLUBS
63,ANCHORVALE,SENGKANG,NORTH-EAST REGION,1.398405,103.888611,activity.community_center,null,Sengkang West Zone L CC,"Sengkang West Zone L CC, 335B Anchorvale Crescent, Singapore 542335, Singapore",null,null,null,2025-04-12 16:15:23.452741,2025-04-12 16:15:23.452741,CLUBS
64,SENGKANG TOWN CENTRE,SENGKANG,NORTH-EAST REGION,1.3934908,103.8944045,activity.community_center,null,Morning Star Sengkang,"Morning Star Sengkang, 261B Sengkang East Way, Singapore 542261, Singapore",null,null,null,2025-04-12 16:15:23.486823,2025-04-12 16:15:23.486823,CLUBS
136,TANJONG RHU,KALLANG,CENTRAL REGION,1.30049815,103.884784081327,activity.community_center,null,Katong Community Centre,"Katong Community Centre, 51 Kampong Arang Road, Singapore 438178, Singapore",null,null,null,2025-04-12 16:15:30.878682,2025-04-12 16:15:30.878682,CLUBS
7085,ANCHORVALE,SENGKANG,NORTH-EAST REGION,1.3909777,103.8904139,childcare,null,Berry Tree Preschool,"Berry Tree Preschool, 319C Anchorvale Drive, Singapore 543319, Singapore",null,null,null,2025-04-12 16:30:01.172001,2025-04-12 16:30:01.172001,SCHOOL
137,ALJUNIED,GEYLANG,CENTRAL REGION,1.3138153,103.88075625812,activity.community_center,null,HCSA Community Services,"HCSA Community Services, Lorong 23 Geylang, Singapore 388369, Singapore",null,null,null,2025-04-12 16:15:30.915688,2025-04-12 16:15:30.915688,CLUBS
138,POTONG PASIR,TOA PAYOH,CENTRAL REGION,1.33264925,103.867161168425,activity.community_center,null,Potong Pasir Community Club,"Potong Pasir Community Club, 6 Potong Pasir Avenue 2, Singapore 358361, Singapore",null,null,null,2025-04-12 16:15:30.974863,2025-04-12 16:15:30.974863,CLUBS
139,BEDOK SOUTH,BEDOK,EAST REGION,1.3173061,103.94680471679,activity.community_center,null,Siglap Community Centre,"Siglap Community Centre, 151 Bedok South Road, Singapore 460151, Singapore",null,null,null,2025-04-12 16:15:31.011906,2025-04-12 16:15:31.011906,CLUBS
140,ALJUNIED,GEYLANG,CENTRAL REGION,1.30932255,103.88680910362,activity.community_center,null,Mountbatten Community Club,"Mountbatten Community Club, 87 Jalan Satu, Singapore 390087, Singapore",null,null,null,2025-04-12 16:15:31.078652,2025-04-12 16:15:31.078652,CLUBS
141,KEMBANGAN,BEDOK,EAST REGION,1.3214568,103.913242942413,activity.community_center,null,Kampong Kembangan Community Club,"Kampong Kembangan Community Club, Siglap Park Connector, Singapore 410117, Singapore",null,null,null,2025-04-12 16:15:31.11094,2025-04-12 16:15:31.11094,CLUBS
33,WOODGROVE,WOODLANDS,NORTH REGION,1.4318561,103.7853201,activity.community_center,null,Woodgrove Community Centre,"Woodgrove Community Centre, 353 Woodlands Avenue 1, Singapore 730353, Singapore",null,null,null,2025-04-12 16:15:19.975344,2025-04-12 16:15:19.975344,CLUBS
69,PUNGGOL TOWN CENTRE,PUNGGOL,NORTH-EAST REGION,1.4121436,103.8979137,activity.community_center,null,Punggol BayVue Residents' Network,"Punggol BayVue Residents' Network, 323B Sumang Walk, Singapore 822323, Singapore",null,null,null,2025-04-12 16:15:23.833149,2025-04-12 16:15:23.833149,CLUBS
74,HOUGANG WEST,HOUGANG,NORTH-EAST REGION,1.3724095,103.8886609,activity.community_center,null,Bedok Reservoir - Punggol Vale RC,"Bedok Reservoir - Punggol Vale RC, 515 Hougang Avenue 4, Singapore 538830, Singapore",null,null,null,2025-04-12 16:15:24.110712,2025-04-12 16:15:24.110712,CLUBS
106,TEBAN GARDENS,JURONG EAST,WEST REGION,1.32093075,103.74756151498,activity.community_center,null,Ayer Rajah Community Centre,"Ayer Rajah Community Centre, 150 Pandan Gardens, Singapore 609335, Singapore",null,null,null,2025-04-12 16:15:27.928735,2025-04-12 16:15:27.928735,CLUBS
51,ANCHORVALE,SENGKANG,NORTH-EAST REGION,1.39713995,103.886658934321,activity.community_center,null,Anchorvale Community Club,"Anchorvale Community Club, 59 Anchorvale Road, Singapore 544965, Singapore",null,null,null,2025-04-12 16:15:22.844488,2025-04-12 16:15:22.844488,CLUBS
61,SENGKANG TOWN CENTRE,SENGKANG,NORTH-EAST REGION,1.3979504,103.8964666,activity.community_center,null,Compassvale Cape Residents' Network,"Compassvale Cape Residents' Network, 286C Compassvale Crescent, Singapore 543286, Singapore",null,null,null,2025-04-12 16:15:23.371205,2025-04-12 16:15:23.371205,CLUBS
71,SENGKANG TOWN CENTRE,SENGKANG,NORTH-EAST REGION,1.3901751,103.8945549,activity.community_center,null,Compassvale Mast Residents' Network,"Compassvale Mast Residents' Network, 216D Compassvale Drive, Singapore 544216, Singapore",null,null,null,2025-04-12 16:15:23.941266,2025-04-12 16:15:23.941266,CLUBS
145,BOON KENG,KALLANG,CENTRAL REGION,1.312742,103.8709299,activity.community_center,null,Adventist Active Centre,"Adventist Active Centre, 8 Upper Boon Keng Road, Singapore 380008, Singapore",null,null,null,2025-04-12 16:15:31.374727,2025-04-12 16:15:31.374727,CLUBS
8527,ANAK BUKIT,BUKIT TIMAH,CENTRAL REGION,1.34049335,103.771754767004,activity.community_center,null,Bukit Timah Community Club,"Bukit Timah Community Club, 20 Toh Yi Drive, Singapore 596569, Singapore",null,null,null,2025-04-12 16:39:37.632173,2025-04-12 16:39:37.632173,CLUBS
1,SAUJANA,BUKIT PANJANG,WEST REGION,1.38167025,103.764733577638,activity.community_center,null,Senja-Cashew Community Centre,"Senja-Cashew Community Centre, 101 Bukit Panjang Road, Singapore 679910, Singapore",null,null,null,2025-04-13 00:05:54,2025-04-13 00:05:56,CLUBS
7813,WOODLANDS SOUTH,WOODLANDS,NORTH REGION,1.4326687,103.798764554632,service.vehicle.fuel,null,Sinopec Woodlands,"Sinopec Woodlands, 150 Woodlands Avenue 5, Singapore 737854, Singapore",null,null,null,2025-04-12 16:32:08.036152,2025-04-12 16:32:08.036152,VEHICLE
7814,YISHUN EAST,YISHUN,NORTH REGION,1.42036095,103.848047014729,service.vehicle.fuel,null,Sinopec,"Sinopec, Yishun Avenue 1, Singapore 760433, Singapore",null,null,null,2025-04-12 16:32:08.079968,2025-04-12 16:32:08.079968,VEHICLE
7087,SENGKANG TOWN CENTRE,SENGKANG,NORTH-EAST REGION,1.3892826,103.9015407,childcare,null,PCF Sparkletots Preschool,"PCF Sparkletots Preschool, Punggol Road, Singapore 540230, Singapore",null,null,null,2025-04-12 16:30:01.261752,2025-04-12 16:30:01.261752,SCHOOL
7088,SENGKANG TOWN CENTRE,SENGKANG,NORTH-EAST REGION,1.3888764,103.9008189,childcare,null,Sengkang Student Care Centre,"Sengkang Student Care Centre, Compassvale Walk, Singapore 540229, Singapore",null,null,null,2025-04-12 16:30:01.291347,2025-04-12 16:30:01.291347,SCHOOL
7089,RIVERVALE,SENGKANG,NORTH-EAST REGION,1.3826418,103.8993869,childcare,null,My First Skool,"My First Skool, 101 Rivervale Walk, Singapore 540101, Singapore",null,null,null,2025-04-12 16:30:01.318821,2025-04-12 16:30:01.318821,SCHOOL
7090,SENGKANG TOWN CENTRE,SENGKANG,NORTH-EAST REGION,1.389826,103.8943419,childcare,null,E-Bridge Pre-School,"E-Bridge Pre-School, Sengkang Square, Singapore 543216, Singapore",null,null,null,2025-04-12 16:30:01.354362,2025-04-12 16:30:01.354362,SCHOOL
7091,SENGKANG TOWN CENTRE,SENGKANG,NORTH-EAST REGION,1.3980277,103.8990416,childcare,null,My First Skool,"My First Skool, 295A Compassvale Crescent, Singapore 541295, Singapore",null,null,null,2025-04-12 16:30:01.383717,2025-04-12 16:30:01.383717,SCHOOL
7092,SENGKANG TOWN CENTRE,SENGKANG,NORTH-EAST REGION,1.3953045,103.8947787,childcare,null,PCF Sparkletots Preschool,"PCF Sparkletots Preschool, 262A Compassvale Street, Singapore 541262, Singapore",null,null,null,2025-04-12 16:30:01.416015,2025-04-12 16:30:01.416015,SCHOOL
7096,ANCHORVALE,SENGKANG,NORTH-EAST REGION,1.3898492,103.888146,childcare,null,Life Student Care @ Sengkang,"Life Student Care @ Sengkang, 306C Anchorvale Link, Singapore 543306, Singapore",null,null,null,2025-04-12 16:30:01.535192,2025-04-12 16:30:01.535192,SCHOOL
306,RIVERVALE,SENGKANG,NORTH-EAST REGION,1.38671085,103.909031688568,commercial.supermarket,null,NTUC Fairprice,"NTUC Fairprice, Sengkang East Drive, Singapore 523172, Singapore",null,null,null,2025-04-12 16:15:55.782187,2025-04-12 16:15:55.782187,SHOPPING
959,SENTOSA,SOUTHERN ISLANDS,CENTRAL REGION,1.2528908,103.8155233,commercial.outdoor_and_sport,null,SeaBreeze Water Sports,"SeaBreeze Water Sports, 36 Siloso Beach Walk, Singapore 099005, Singapore",null,null,null,2025-04-12 16:18:26.688179,2025-04-12 16:18:26.688179,SPORTS_COMPLEX
72,SENGKANG TOWN CENTRE,SENGKANG,NORTH-EAST REGION,1.3920627,103.9000129,activity.community_center,null,Compassvale Haven Residents' Committee,"Compassvale Haven Residents' Committee, 250B Jalan Merdu, Singapore 548661, Singapore",null,null,null,2025-04-12 16:15:24.011355,2025-04-12 16:15:24.011355,CLUBS
73,SENGKANG TOWN CENTRE,SENGKANG,NORTH-EAST REGION,1.3874844,103.8997386,activity.community_center,null,Compassvale Vista Residents' Committee,"Compassvale Vista Residents' Committee, 226A Compassvale Walk, Singapore 541226, Singapore",null,null,null,2025-04-12 16:15:24.071928,2025-04-12 16:15:24.071928,CLUBS
76,COMPASSVALE,SENGKANG,NORTH-EAST REGION,1.3854729,103.8929014,activity.community_center,null,Compassvale Ancilla Residents' Committee,"Compassvale Ancilla Residents' Committee, 279B Sengkang East Avenue, Singapore 542279, Singapore",null,null,null,2025-04-12 16:15:24.211458,2025-04-12 16:15:24.211458,CLUBS
82,ANCHORVALE,SENGKANG,NORTH-EAST REGION,1.3898736,103.8882336,activity.community_center,null,Life Community,"Life Community, 306C Anchorvale Link, Singapore 543306, Singapore",null,null,null,2025-04-12 16:15:24.531148,2025-04-12 16:15:24.531148,CLUBS
960,JOO KOON,PIONEER,WEST REGION,1.3272083,103.6784809,commercial.outdoor_and_sport,null,Decathlon,"Decathlon, 1 Joo Koon Circle, Singapore 629117, Singapore",null,null,null,2025-04-12 16:18:26.721059,2025-04-12 16:18:26.721059,SPORTS_COMPLEX
961,TOH TUCK,CLEMENTI,WEST REGION,1.3286274,103.7518462,commercial.outdoor_and_sport,null,Rodalink,"Rodalink, 18 Boon Lay Way, Singapore 609966, Singapore",null,null,null,2025-04-12 16:18:26.750245,2025-04-12 16:18:26.750245,SPORTS_COMPLEX
962,PASIR PANJANG 2,QUEENSTOWN,CENTRAL REGION,1.2769608,103.7963084,commercial.outdoor_and_sport,null,Bikes n Bites,"Bikes n Bites, 100G Pasir Panjang Road, Singapore 118523, Singapore",null,null,null,2025-04-12 16:18:26.782054,2025-04-12 16:18:26.782054,SPORTS_COMPLEX
79,SENGKANG TOWN CENTRE,SENGKANG,NORTH-EAST REGION,1.3982014,103.8958986,activity.community_center,null,Bethesda Care Senior Activity Centre,"Bethesda Care Senior Activity Centre, 287A Compassvale Crescent, Singapore 541287, Singapore",null,null,null,2025-04-12 16:15:24.368895,2025-04-12 16:15:24.368895,CLUBS
80,ANCHORVALE,SENGKANG,NORTH-EAST REGION,1.3934732,103.8863605,activity.community_center,null,Sengkang West Zone E Residents' Network,"Sengkang West Zone E Residents' Network, 351 Anchorvale Road, Singapore 540351, Singapore",null,null,null,2025-04-12 16:15:24.411159,2025-04-12 16:15:24.411159,CLUBS
85,COMPASSVALE,SENGKANG,NORTH-EAST REGION,1.3828072,103.8946343,activity.community_center,null,Compassvale Aspella,"Compassvale Aspella, Compassvale Link, Singapore 540276, Singapore",null,null,null,2025-04-12 16:15:24.694978,2025-04-12 16:15:24.694978,CLUBS
19,GHIM MOH,QUEENSTOWN,CENTRAL REGION,1.3121632,103.789740753448,activity.community_center,null,Ulu Pandan Community Club,"Ulu Pandan Community Club, 170 Ghim Moh Road, Singapore 279621, Singapore",null,null,null,2025-04-12 16:15:19.104523,2025-04-12 16:15:19.104523,CLUBS
34,YISHUN CENTRAL,YISHUN,NORTH REGION,1.4278019,103.8363084,activity.community_center,null,Nee Soon Central Community Centre,"Nee Soon Central Community Centre, 930 Yishun Avenue 2, Singapore 769098, Singapore",null,null,null,2025-04-12 16:15:20.020171,2025-04-12 16:15:20.020171,CLUBS
100,BUKIT BATOK CENTRAL,BUKIT BATOK,WEST REGION,1.3501679,103.7475557484,activity.community_center,null,Bukit Batok Community Club,"Bukit Batok Community Club, 21 Bukit Batok Central, Singapore 659959, Singapore",null,null,null,2025-04-12 16:15:27.596933,2025-04-12 16:15:27.596933,CLUBS
107,HONG KAH,JURONG WEST,WEST REGION,1.3485581,103.718164228871,activity.community_center,null,Jurong Spring Community Centre,"Jurong Spring Community Centre, 8 Jurong West Street 52, Singapore 649296, Singapore",null,null,null,2025-04-12 16:15:27.963979,2025-04-12 16:15:27.963979,CLUBS
3404,PASIR RIS CENTRAL,PASIR RIS,EAST REGION,1.3739331,103.9485326,commercial.second_hand,null,EcoRing Singapore,"EcoRing Singapore, 7 Pasir Ris Central, Singapore 519612, Singapore",null,null,null,2025-04-12 16:25:45.623015,2025-04-12 16:25:45.623015,SHOPPING
963,BUKIT BATOK SOUTH,BUKIT BATOK,WEST REGION,1.3425663,103.7520943,commercial.outdoor_and_sport,null,Green basikal,"Green basikal, 2022, #03-144 Bukit Batok Street 23, Singapore 659480, Singapore",null,null,null,2025-04-12 16:18:26.810831,2025-04-12 16:18:26.810831,SPORTS_COMPLEX
964,KIAN TECK,JURONG WEST,WEST REGION,1.3328164,103.6975783,commercial.outdoor_and_sport,null,Footloops,"Footloops, 1 Soon Lee Street, Singapore 627605, Singapore",null,null,null,2025-04-12 16:18:26.842718,2025-04-12 16:18:26.842718,SPORTS_COMPLEX
965,KIAN TECK,JURONG WEST,WEST REGION,1.3328545,103.6975739,commercial.outdoor_and_sport,null,Footloops,"Footloops, 1 Soon Lee Street, Singapore 627605, Singapore",null,null,null,2025-04-12 16:18:26.875243,2025-04-12 16:18:26.875243,SPORTS_COMPLEX
967,PENG SIANG,CHOA CHU KANG,WEST REGION,1.37819,103.739069,commercial.outdoor_and_sport,null,Poh Cycle,"Poh Cycle, Choa Chu Kang Park Connector, Singapore 680475, Singapore",null,null,null,2025-04-12 16:18:26.934158,2025-04-12 16:18:26.934158,SPORTS_COMPLEX
968,YUNNAN,JURONG WEST,WEST REGION,1.3415501,103.6919384,commercial.outdoor_and_sport,null,Dynamic Bike Shop,"Dynamic Bike Shop, 961 Jurong West Street 92, Singapore 640959, Singapore",null,null,null,2025-04-12 16:18:26.966735,2025-04-12 16:18:26.966735,SPORTS_COMPLEX
969,TUAS PROMENADE,TUAS,WEST REGION,1.3152335,103.6284715,commercial.outdoor_and_sport,null,Sea and Land Technologies Pte Ltd,"Sea and Land Technologies Pte Ltd, 65 Tuas South Avenue 1, Singapore 637601, Singapore",null,null,null,2025-04-12 16:18:27.003217,2025-04-12 16:18:27.003217,SPORTS_COMPLEX
970,CLEMENTI NORTH,CLEMENTI,WEST REGION,1.313915,103.7711988,commercial.outdoor_and_sport,null,Scooter Hub Clementi,"Scooter Hub Clementi, 354 Clementi Road, Singapore 120354, Singapore",null,null,null,2025-04-12 16:18:27.037278,2025-04-12 16:18:27.037278,SPORTS_COMPLEX
971,HONG KAH,JURONG WEST,WEST REGION,1.3503831,103.7179507,commercial.outdoor_and_sport,null,Lee Seng Lee Bicycle Shop,"Lee Seng Lee Bicycle Shop, 502 Jurong West Avenue 1, Singapore 640502, Singapore",null,null,null,2025-04-12 16:18:27.067536,2025-04-12 16:18:27.067536,SPORTS_COMPLEX
972,TOH GUAN,JURONG EAST,WEST REGION,1.3353064,103.746485,commercial.outdoor_and_sport,null,World of Sports,"World of Sports, 2 Jurong East Street 21, Singapore 609601, Singapore",null,null,null,2025-04-12 16:18:27.095651,2025-04-12 16:18:27.095651,SPORTS_COMPLEX
1016,MARINE PARADE,MARINE PARADE,CENTRAL REGION,1.30087625,103.905086381787,commercial.outdoor_and_sport,null,Royal Sporting House,"Royal Sporting House, East Coast Parkway, Singapore 449300, Singapore",null,null,null,2025-04-12 16:18:32.888155,2025-04-12 16:18:32.888155,SPORTS_COMPLEX
2619,KATONG,MARINE PARADE,CENTRAL REGION,1.308925,103.9029148,commercial.pet,null,Wagging Rights,"Wagging Rights, Joo Chiat Road, Singapore 427593, Singapore",null,null,null,2025-04-12 16:24:25.244903,2025-04-12 16:24:25.244903,SHOPPING
2620,SERANGOON GARDEN,SERANGOON,NORTH-EAST REGION,1.3649903,103.8661248,commercial.pet,null,Pet Lovers Centre,"Pet Lovers Centre, Kensington Park Road, Singapore 557255, Singapore",null,null,null,2025-04-12 16:24:25.27639,2025-04-12 16:24:25.27639,SHOPPING
2621,KATONG,MARINE PARADE,CENTRAL REGION,1.3083451,103.8951496,commercial.pet,null,Pets Vale,"Pets Vale, Tanjong Katong Road, Singapore 437027, Singapore",null,null,null,2025-04-12 16:24:25.31472,2025-04-12 16:24:25.31472,SHOPPING
3823,TAMPINES WEST,TAMPINES,EAST REGION,1.353439,103.9405579,catering.restaurant,null,Pizza Hut,"Pizza Hut, 51 Tampines Avenue 4, Singapore 529684, Singapore",null,null,null,2025-04-12 16:26:10.710022,2025-04-12 16:26:10.710022,RESTAURANT
5129,ANCHORVALE,SENGKANG,NORTH-EAST REGION,1.3953136,103.8929279,catering.fast_food,null,Mr Bean,"Mr Bean, 110 Sengkang East Way, Singapore 544866, Singapore",null,null,null,2025-04-12 16:27:24.921119,2025-04-12 16:27:24.921119,RESTAURANT
5133,SENGKANG TOWN CENTRE,SENGKANG,NORTH-EAST REGION,1.3921661,103.8949259,catering.fast_food,null,Krispy Kreme,"Krispy Kreme, 1 Sengkang Square, Singapore 545078, Singapore",null,null,null,2025-04-12 16:27:25.066178,2025-04-12 16:27:25.066178,RESTAURANT
5134,SENGKANG TOWN CENTRE,SENGKANG,NORTH-EAST REGION,1.3922651,103.8950179,catering.fast_food,null,PastaGo,"PastaGo, 1 Sengkang Square, Singapore 545078, Singapore",null,null,null,2025-04-12 16:27:25.099624,2025-04-12 16:27:25.099624,RESTAURANT
5136,SENGKANG TOWN CENTRE,SENGKANG,NORTH-EAST REGION,1.3922723,103.8952509,catering.fast_food,null,Tip Top,"Tip Top, 1 Sengkang Square, Singapore 545078, Singapore",null,null,null,2025-04-12 16:27:25.166577,2025-04-12 16:27:25.166577,RESTAURANT
5137,SENGKANG TOWN CENTRE,SENGKANG,NORTH-EAST REGION,1.392254,103.894966,catering.fast_food,null,Shihlin Taiwan Street Snacks,"Shihlin Taiwan Street Snacks, 1 Sengkang Square, Singapore 545078, Singapore",null,null,null,2025-04-12 16:27:25.196983,2025-04-12 16:27:25.196983,RESTAURANT
5138,SENGKANG TOWN CENTRE,SENGKANG,NORTH-EAST REGION,1.3922637,103.8952956,catering.fast_food,null,CocoCane,"CocoCane, 1 Sengkang Square, Singapore 545078, Singapore",null,null,null,2025-04-12 16:27:25.230266,2025-04-12 16:27:25.230266,RESTAURANT
5095,TAMPINES EAST,TAMPINES,EAST REGION,1.3492927,103.9477703,catering.fast_food,null,McDonald's,"McDonald's, Tampines Avenue 2, Singapore 521107, Singapore",null,null,null,2025-04-12 16:27:23.705702,2025-04-12 16:27:23.705702,RESTAURANT
5758,ANCHORVALE,SENGKANG,NORTH-EAST REGION,1.3950089,103.8928749,catering.cafe,null,Kaffe & Toast,"Kaffe & Toast, 110 Sengkang East Way, Singapore 544866, Singapore",null,null,null,2025-04-12 16:28:01.492514,2025-04-12 16:28:01.492514,CAFE
5762,SENGKANG TOWN CENTRE,SENGKANG,NORTH-EAST REGION,1.3919053,103.8951854,catering.cafe,null,The Coffee Bean & Tea Leaf,"The Coffee Bean & Tea Leaf, 1 Sengkang Square, Singapore 545078, Singapore",null,null,null,2025-04-12 16:28:01.645943,2025-04-12 16:28:01.645943,CAFE
5763,SENGKANG TOWN CENTRE,SENGKANG,NORTH-EAST REGION,1.3917508,103.8948334,catering.cafe,null,Gong Cha,"Gong Cha, 1 Sengkang Square, Singapore 545078, Singapore",null,null,null,2025-04-12 16:28:01.693507,2025-04-12 16:28:01.693507,CAFE
5764,SENGKANG TOWN CENTRE,SENGKANG,NORTH-EAST REGION,1.392315,103.8952611,catering.cafe,null,LiHO,"LiHO, 1 Sengkang Square, Singapore 545078, Singapore",null,null,null,2025-04-12 16:28:01.733938,2025-04-12 16:28:01.733938,CAFE
5765,SENGKANG TOWN CENTRE,SENGKANG,NORTH-EAST REGION,1.3920266,103.8952649,catering.cafe,null,KOI Thé,"KOI Thé, Sengkang Bus Interchange, Singapore 545077, Singapore",null,null,null,2025-04-12 16:28:01.774219,2025-04-12 16:28:01.774219,CAFE
5740,PLAB,PAYA LEBAR,NORTH-EAST REGION,1.34458905,103.899627399118,catering.cafe,null,Club 56,"Club 56, Airport Road, Singapore 533844, Singapore",null,null,null,2025-04-12 16:28:00.763389,2025-04-12 16:28:00.763389,CAFE
5722,HOUGANG CENTRAL,HOUGANG,NORTH-EAST REGION,1.3723972,103.8938773,catering.cafe,null,Starbucks,"Starbucks, 90 Hougang Avenue 10, Singapore 538766, Singapore",null,null,null,2025-04-12 16:28:00.088411,2025-04-12 16:28:00.088411,CAFE
6516,RIVERVALE,SENGKANG,NORTH-EAST REGION,1.38173725,103.898739511264,education.school,null,North Vista Secondary School,"North Vista Secondary School, 11 Rivervale Link, Singapore 545081, Singapore",null,null,null,2025-04-12 16:28:49.719144,2025-04-12 16:28:49.719144,SCHOOL
6520,ANCHORVALE,SENGKANG,NORTH-EAST REGION,1.3903798,103.887353793371,education.school,null,Anchor Green Primary School,"Anchor Green Primary School, 31 Anchorvale Drive, Singapore 544969, Singapore",null,null,null,2025-04-12 16:28:49.857315,2025-04-12 16:28:49.857315,SCHOOL
6523,SENGKANG TOWN CENTRE,SENGKANG,NORTH-EAST REGION,1.3894052,103.899326230346,education.school,null,Seng Kang Primary School,"Seng Kang Primary School, 21 Compassvale Walk, Singapore 545166, Singapore",null,null,null,2025-04-12 16:28:49.9462,2025-04-12 16:28:49.9462,SCHOOL
6524,RIVERVALE,SENGKANG,NORTH-EAST REGION,1.3876014,103.903789223705,education.school,null,North Spring Primary School,"North Spring Primary School, 1 Rivervale Street, Singapore 545088, Singapore",null,null,null,2025-04-12 16:28:49.985125,2025-04-12 16:28:49.985125,SCHOOL
6528,ANCHORVALE,SENGKANG,NORTH-EAST REGION,1.39500145,103.889775875903,education.school,null,Springdale Primary School,"Springdale Primary School, 71 Anchorvale Link, Singapore 544799, Singapore",null,null,null,2025-04-12 16:28:50.108111,2025-04-12 16:28:50.108111,SCHOOL
6536,COMPASSVALE,SENGKANG,NORTH-EAST REGION,1.3828948,103.895977069554,education.school,null,North Vista Primary School,"North Vista Primary School, 20 Compassvale Link, Singapore 544974, Singapore",null,null,null,2025-04-12 16:28:50.329989,2025-04-12 16:28:50.329989,SCHOOL
6537,COMPASSVALE,SENGKANG,NORTH-EAST REGION,1.3840612,103.891212177051,education.school,null,Palm View Primary School,"Palm View Primary School, 150 Compassvale Bow, Singapore 544822, Singapore",null,null,null,2025-04-12 16:28:50.362501,2025-04-12 16:28:50.362501,SCHOOL
6513,WATERWAY EAST,PUNGGOL,NORTH-EAST REGION,1.40239815,103.909146782783,education.school,null,Punggol Secondary School,"Punggol Secondary School, 51 Edgefield Plains, Singapore 828870, Singapore",null,null,null,2025-04-12 16:28:49.629918,2025-04-12 16:28:49.629918,SCHOOL
7327,LORONG AH SOO,HOUGANG,NORTH-EAST REGION,1.3578976,103.8835025,healthcare.clinic_or_praxis,null,Eastern Hougang Eye Specialist,"Eastern Hougang Eye Specialist, 201 Hougang Street 21, Singapore 530202, Singapore",null,null,null,2025-04-12 16:30:59.079588,2025-04-12 16:30:59.079588,DOCTOR
7394,SENGKANG TOWN CENTRE,SENGKANG,NORTH-EAST REGION,1.3898718,103.8985765,healthcare.clinic_or_praxis,null,Kidslink Children's Clinic,"Kidslink Children's Clinic, Compassvale Walk, Singapore 540229, Singapore",null,null,null,2025-04-12 16:31:01.121012,2025-04-12 16:31:01.121012,DOCTOR
7361,TAMPINES EAST,TAMPINES,EAST REGION,1.3591034,103.9551593,healthcare.clinic_or_praxis,null,AcuHealth TCM Medical Centre,"AcuHealth TCM Medical Centre, 462 Tampines Street 44, Singapore 520462, Singapore",null,null,null,2025-04-12 16:31:00.094995,2025-04-12 16:31:00.094995,DOCTOR
987,EAST COAST,MARINE PARADE,CENTRAL REGION,1.2995515,103.9067337,commercial.outdoor_and_sport,null,ERNSports,"ERNSports, 920 East Coast Parkway, Singapore 449875, Singapore",null,null,null,2025-04-12 16:18:32.000091,2025-04-12 16:18:32.000091,SPORTS_COMPLEX
988,FRANKEL,BEDOK,EAST REGION,1.3158062,103.9262223,commercial.outdoor_and_sport,null,T3 Bicycle Gears,"T3 Bicycle Gears, 1K Figaro Street, Singapore 458322, Singapore",null,null,null,2025-04-12 16:18:32.044985,2025-04-12 16:18:32.044985,SPORTS_COMPLEX
989,CHANGI POINT,CHANGI,EAST REGION,1.3889914,103.9778381,commercial.outdoor_and_sport,null,Rythm & Ride,"Rythm & Ride, 200 Loyang Park Connector, Singapore 508529, Singapore",null,null,null,2025-04-12 16:18:32.076601,2025-04-12 16:18:32.076601,SPORTS_COMPLEX
990,JOO SENG,TOA PAYOH,CENTRAL REGION,1.3352916,103.8874042,commercial.outdoor_and_sport,null,PassionGadgets,"PassionGadgets, 02-07 Harper Road, Singapore 369674, Singapore",null,null,null,2025-04-12 16:18:32.106248,2025-04-12 16:18:32.106248,SPORTS_COMPLEX
991,KALLANG WAY,GEYLANG,CENTRAL REGION,1.3284074,103.8723731,commercial.outdoor_and_sport,null,Unspokin,"Unspokin, 3 Lorong Bakar Batu, Singapore 348741, Singapore",null,null,null,2025-04-12 16:18:32.131932,2025-04-12 16:18:32.131932,SPORTS_COMPLEX
992,KAMPONG UBI,GEYLANG,CENTRAL REGION,1.3317104,103.8952383,commercial.outdoor_and_sport,null,Scuba Warehouse,"Scuba Warehouse, 52 Ubi Avenue 3, Singapore 408866, Singapore",null,null,null,2025-04-12 16:18:32.160627,2025-04-12 16:18:32.160627,SPORTS_COMPLEX
993,FRANKEL,BEDOK,EAST REGION,1.3151628,103.9191479,commercial.outdoor_and_sport,null,Cannondale,"Cannondale, 83 Frankel Avenue, Singapore 458223, Singapore",null,null,null,2025-04-12 16:18:32.194458,2025-04-12 16:18:32.194458,SPORTS_COMPLEX
994,FRANKEL,BEDOK,EAST REGION,1.313745,103.9319059,commercial.outdoor_and_sport,null,Rodalink,"Rodalink, 166B Upper East Coast Road, Singapore 456441, Singapore",null,null,null,2025-04-12 16:18:32.234757,2025-04-12 16:18:32.234757,SPORTS_COMPLEX
995,KEMBANGAN,BEDOK,EAST REGION,1.3229905,103.9221843,commercial.outdoor_and_sport,null,"Decathlon, Singapore","Decathlon, Singapore, 750A Chai Chee Road, Singapore 469001, Singapore",null,null,null,2025-04-12 16:18:32.261269,2025-04-12 16:18:32.261269,SPORTS_COMPLEX
997,BEDOK NORTH,BEDOK,EAST REGION,1.3337518,103.9282671,commercial.outdoor_and_sport,null,Ong Heng Bee Company,"Ong Heng Bee Company, 527 Bedok North Street 3, Singapore 460527, Singapore",null,null,null,2025-04-12 16:18:32.328527,2025-04-12 16:18:32.328527,SPORTS_COMPLEX
998,BOON KENG,KALLANG,CENTRAL REGION,1.3143789,103.8712786,commercial.outdoor_and_sport,null,Ban Soon Bicycle Shop,"Ban Soon Bicycle Shop, 11 Upper Boon Keng Road, Singapore 380011, Singapore",null,null,null,2025-04-12 16:18:32.359308,2025-04-12 16:18:32.359308,SPORTS_COMPLEX
999,FRANKEL,BEDOK,EAST REGION,1.3162588,103.9200916,commercial.outdoor_and_sport,null,Coastcycles,"Coastcycles, 54 Siglap Drive, Singapore 456176, Singapore",null,null,null,2025-04-12 16:18:32.389908,2025-04-12 16:18:32.389908,SPORTS_COMPLEX
1000,KEMBANGAN,BEDOK,EAST REGION,1.3273082,103.9182604,commercial.outdoor_and_sport,null,Wheels on High,"Wheels on High, 28 Senang Crescent, Singapore 416601, Singapore",null,null,null,2025-04-12 16:18:32.421529,2025-04-12 16:18:32.421529,SPORTS_COMPLEX
1001,KAMPONG UBI,GEYLANG,CENTRAL REGION,1.3328675,103.8933738,commercial.outdoor_and_sport,null,Tay Junction,"Tay Junction, 33 Ubi Avenue 3, Singapore 408868, Singapore",null,null,null,2025-04-12 16:18:32.448676,2025-04-12 16:18:32.448676,SPORTS_COMPLEX
1002,KAMPONG UBI,GEYLANG,CENTRAL REGION,1.3318216,103.8968826,commercial.outdoor_and_sport,null,Climb Asia,"Climb Asia, 1 Ubi View, Singapore 408555, Singapore",null,null,null,2025-04-12 16:18:32.476717,2025-04-12 16:18:32.476717,SPORTS_COMPLEX
1004,ALJUNIED,GEYLANG,CENTRAL REGION,1.3189732,103.891054,commercial.outdoor_and_sport,null,The Rebound Centre,"The Rebound Centre, 05-110 Paya Lebar Road, Singapore 389731, Singapore",null,null,null,2025-04-12 16:18:32.537543,2025-04-12 16:18:32.537543,SPORTS_COMPLEX
1005,ALJUNIED,GEYLANG,CENTRAL REGION,1.3176585,103.8775954,commercial.outdoor_and_sport,null,Makarios Venture Pte. Ltd.,"Makarios Venture Pte. Ltd., 601 Sims Drive, Singapore 387382, Singapore",null,null,null,2025-04-12 16:18:32.563548,2025-04-12 16:18:32.563548,SPORTS_COMPLEX
1006,TANJONG RHU,KALLANG,CENTRAL REGION,1.3043937,103.8823325,commercial.outdoor_and_sport,null,Decathlon,"Decathlon, 230 Stadium Boulevard, Singapore 397799, Singapore",null,null,null,2025-04-12 16:18:32.592165,2025-04-12 16:18:32.592165,SPORTS_COMPLEX
1007,KAMPONG UBI,GEYLANG,CENTRAL REGION,1.3254864,103.8964589,commercial.outdoor_and_sport,null,Soon Watt,"Soon Watt, 53 #03-08 Ubi Avenue 1, Singapore 408934, Singapore",null,null,null,2025-04-12 16:18:32.619296,2025-04-12 16:18:32.619296,SPORTS_COMPLEX
1008,ALJUNIED,GEYLANG,CENTRAL REGION,1.3142348,103.8788603,commercial.outdoor_and_sport,null,Bikemart SG,"Bikemart SG, 142 Sims Avenue, Singapore 387449, Singapore",null,null,null,2025-04-12 16:18:32.648726,2025-04-12 16:18:32.648726,SPORTS_COMPLEX
1009,KAMPONG UBI,GEYLANG,CENTRAL REGION,1.3308219,103.8921422,commercial.outdoor_and_sport,null,e Walker,"e Walker, 3005 Ubi Avenue 3, Singapore 408861, Singapore",null,null,null,2025-04-12 16:18:32.674584,2025-04-12 16:18:32.674584,SPORTS_COMPLEX
8114,RIVERVALE,SENGKANG,NORTH-EAST REGION,1.3855383,103.9023841,service.beauty,null,Xpress Massage,"Xpress Massage, 118 Rivervale Drive, Singapore 540118, Singapore",null,null,null,2025-04-12 16:33:08.582209,2025-04-12 16:33:08.582209,PERSONAL_CARE
8115,RIVERVALE,SENGKANG,NORTH-EAST REGION,1.3857305,103.9022329,service.beauty,null,Azel Jane Salon,"Azel Jane Salon, 118 Rivervale Drive, Singapore 540118, Singapore",null,null,null,2025-04-12 16:33:08.627298,2025-04-12 16:33:08.627298,PERSONAL_CARE
8116,RIVERVALE,SENGKANG,NORTH-EAST REGION,1.3855988,103.9022177,service.beauty,null,Barber Point,"Barber Point, 118 Rivervale Drive, Singapore 540118, Singapore",null,null,null,2025-04-12 16:33:08.66489,2025-04-12 16:33:08.66489,PERSONAL_CARE
8117,SENGKANG TOWN CENTRE,SENGKANG,NORTH-EAST REGION,1.385652,103.8973151,service.beauty,null,Le Sassoon,"Le Sassoon, 205A Compassvale Lane, Singapore 541205, Singapore",null,null,null,2025-04-12 16:33:08.697623,2025-04-12 16:33:08.697623,PERSONAL_CARE
1052,NEE SOON,YISHUN,NORTH REGION,1.4034901,103.8177452,commercial.vehicle,null,Hong Heng,"Hong Heng, Sembawang Road, Singapore 779391, Singapore",null,null,null,2025-04-12 16:18:35.490194,2025-04-12 16:18:35.490194,VEHICLE
1053,HOLLAND ROAD,BUKIT TIMAH,CENTRAL REGION,1.3330898,103.7904611,commercial.vehicle,null,Hyundai,"Hyundai, Bukit Timah Road, Singapore 276306, Singapore",null,null,null,2025-04-12 16:18:35.52532,2025-04-12 16:18:35.52532,VEHICLE
1076,BUKIT BATOK SOUTH,BUKIT BATOK,WEST REGION,1.3392095,103.7575569,commercial.vehicle,null,Hua Chin 2000,"Hua Chin 2000, 50 Bukit Batok Street 23, Singapore 659578, Singapore",null,null,null,2025-04-12 16:18:48.204987,2025-04-12 16:18:48.204987,VEHICLE
1077,TEBAN GARDENS,JURONG EAST,WEST REGION,1.3224265,103.7463524,commercial.vehicle,null,Republic Auto,"Republic Auto, 209 Pandan Gardens, Singapore 609339, Singapore",null,null,null,2025-04-12 16:18:48.243043,2025-04-12 16:18:48.243043,VEHICLE
1078,BUKIT BATOK SOUTH,BUKIT BATOK,WEST REGION,1.3392566,103.7574529,commercial.vehicle,null,Bridgestone,"Bridgestone, Bukit Batok Street 23, Singapore 658075, Singapore",null,null,null,2025-04-12 16:18:48.281907,2025-04-12 16:18:48.281907,VEHICLE
1079,BUKIT BATOK SOUTH,BUKIT BATOK,WEST REGION,1.3396983,103.7566538,commercial.vehicle,null,A1 motor Co.,"A1 motor Co., 50 Bukit Batok Street 23, Singapore 659578, Singapore",null,null,null,2025-04-12 16:18:48.329341,2025-04-12 16:18:48.329341,VEHICLE
1081,TOH TUCK,CLEMENTI,WEST REGION,1.3334006,103.7588872,commercial.vehicle,null,Yokohama,"Yokohama, 32 Old Toh Tuck Road, Singapore 597654, Singapore",null,null,null,2025-04-12 16:18:48.452102,2025-04-12 16:18:48.452102,VEHICLE
1083,CLEMENTI CENTRAL,CLEMENTI,WEST REGION,1.3082598,103.7617858,commercial.vehicle,null,Motor Point,"Motor Point, West Coast Road, Singapore 127373, Singapore",null,null,null,2025-04-12 16:18:48.529186,2025-04-12 16:18:48.529186,VEHICLE
1084,BUKIT BATOK SOUTH,BUKIT BATOK,WEST REGION,1.3395938,103.7595449,commercial.vehicle,null,Toyo Tires,"Toyo Tires, 1 Bukit Batok Crescent, Singapore 658064, Singapore",null,null,null,2025-04-12 16:18:48.565967,2025-04-12 16:18:48.565967,VEHICLE
1085,TOH TUCK,CLEMENTI,WEST REGION,1.3369967,103.7544745,commercial.vehicle,null,Excel Cycle Centre,"Excel Cycle Centre, 48 Toh Guan Road East, Singapore 608586, Singapore",null,null,null,2025-04-12 16:18:48.600959,2025-04-12 16:18:48.600959,VEHICLE
1101,KAMPONG UBI,GEYLANG,CENTRAL REGION,1.3355172,103.897604011595,commercial.vehicle,null,KAH Motor,"KAH Motor, 370 Ubi Road 3, Singapore 408805, Singapore",null,null,null,2025-04-12 16:18:54.415402,2025-04-12 16:18:54.415402,VEHICLE
1086,TOH TUCK,CLEMENTI,WEST REGION,1.3333726,103.7588654,commercial.vehicle,null,LK Performance Centre,"LK Performance Centre, 32 Old Toh Tuck Road, Singapore 597654, Singapore",null,null,null,2025-04-12 16:18:48.64098,2025-04-12 16:18:48.64098,VEHICLE
1087,BUKIT BATOK SOUTH,BUKIT BATOK,WEST REGION,1.3381733,103.7600286,commercial.vehicle,null,Pioneer Auto,"Pioneer Auto, Bukit Batok East Avenue 3, Singapore 658064, Singapore",null,null,null,2025-04-12 16:18:48.68475,2025-04-12 16:18:48.68475,VEHICLE
1088,BUKIT BATOK SOUTH,BUKIT BATOK,WEST REGION,1.3382464,103.7600251,commercial.vehicle,null,Zenith Automobile Pte Ltd,"Zenith Automobile Pte Ltd, Bukit Batok East Avenue 3, Singapore 658064, Singapore",null,null,null,2025-04-12 16:18:48.724876,2025-04-12 16:18:48.724876,VEHICLE
1089,BUKIT BATOK SOUTH,BUKIT BATOK,WEST REGION,1.3380848,103.7600324,commercial.vehicle,null,AMS Motors Pte Ltd,"AMS Motors Pte Ltd, Bukit Batok East Avenue 3, Singapore 658065, Singapore",null,null,null,2025-04-12 16:18:48.770066,2025-04-12 16:18:48.770066,VEHICLE
1090,TOH TUCK,CLEMENTI,WEST REGION,1.3374974,103.7546929,commercial.vehicle,null,Ming Chong Auto Parts Accessories Trading,"Ming Chong Auto Parts Accessories Trading, Toh Guan Road East, Singapore 608586, Singapore",null,null,null,2025-04-12 16:18:48.80806,2025-04-12 16:18:48.80806,VEHICLE
1091,TOH TUCK,CLEMENTI,WEST REGION,1.3374334,103.7548156,commercial.vehicle,null,Amici Enterprise,"Amici Enterprise, 21 Toh Guan Road East, Singapore 608586, Singapore",null,null,null,2025-04-12 16:18:48.841086,2025-04-12 16:18:48.841086,VEHICLE
1092,TOH TUCK,CLEMENTI,WEST REGION,1.3375234,103.7535069,commercial.vehicle,null,Soon Huat Tyres,"Soon Huat Tyres, 48 Toh Guan Road East, Singapore 608586, Singapore",null,null,null,2025-04-12 16:18:48.882104,2025-04-12 16:18:48.882104,VEHICLE
1094,KAMPONG UBI,GEYLANG,CENTRAL REGION,1.3332833,103.8947194,commercial.vehicle,null,Quantum Armour,"Quantum Armour, 33 Ubi Avenue 3, Singapore 408868, Singapore",null,null,null,2025-04-12 16:18:54.090184,2025-04-12 16:18:54.090184,VEHICLE
1095,KAMPONG UBI,GEYLANG,CENTRAL REGION,1.3325313,103.895031,commercial.vehicle,null,Venture Cars,"Venture Cars, 33 Ubi Avenue 3, Singapore 408868, Singapore",null,null,null,2025-04-12 16:18:54.140416,2025-04-12 16:18:54.140416,VEHICLE
1096,KAMPONG UBI,GEYLANG,CENTRAL REGION,1.3336933,103.8941564,commercial.vehicle,null,Meyer Motors,"Meyer Motors, 33 Ubi Avenue 3, Singapore 408868, Singapore",null,null,null,2025-04-12 16:18:54.188401,2025-04-12 16:18:54.188401,VEHICLE
1097,KAMPONG UBI,GEYLANG,CENTRAL REGION,1.333364,103.8918173,commercial.vehicle,null,Cars Online,"Cars Online, 81 Ubi Avenue 4, Singapore 408830, Singapore",null,null,null,2025-04-12 16:18:54.23075,2025-04-12 16:18:54.23075,VEHICLE
1098,KAMPONG UBI,GEYLANG,CENTRAL REGION,1.3342889,103.8952892,commercial.vehicle,null,Racing World,"Racing World, Ubi Avenue 4, Singapore 408538, Singapore",null,null,null,2025-04-12 16:18:54.276278,2025-04-12 16:18:54.276278,VEHICLE
1099,KAMPONG UBI,GEYLANG,CENTRAL REGION,1.3318219,103.901450361263,commercial.vehicle,null,Automobile Megamart,"Automobile Megamart, Eunos Link, Singapore 415928, Singapore",null,null,null,2025-04-12 16:18:54.319288,2025-04-12 16:18:54.319288,VEHICLE
1100,KAMPONG UBI,GEYLANG,CENTRAL REGION,1.33452295,103.898683548856,commercial.vehicle,null,Alpine Motors,"Alpine Motors, 7 Ubi Close, Singapore 408805, Singapore",null,null,null,2025-04-12 16:18:54.369225,2025-04-12 16:18:54.369225,VEHICLE
9054,TAMPINES EAST,TAMPINES,EAST REGION,1.3456137,103.944626699873,commercial.marketplace,null,Round Market & Food Centre,"Round Market & Food Centre, 137 Tampines Street 11, Singapore 521137, Singapore",null,null,null,2025-04-12 16:40:37.081781,2025-04-12 16:40:37.081781,SHOPPING
9055,KAKI BUKIT,BEDOK,EAST REGION,1.3328015,103.9142463,commercial.marketplace,null,Pasar 630 Bedok Reservoir Road,"Pasar 630 Bedok Reservoir Road, 630 Bedok Reservoir Road, Singapore 470630, Singapore",null,null,null,2025-04-12 16:40:37.120141,2025-04-12 16:40:37.120141,SHOPPING
9056,TAMPINES WEST,TAMPINES,EAST REGION,1.3488978,103.9334971,commercial.marketplace,null,823A Wet Market,"823A Wet Market, 823A Tampines Street 81, Singapore 521823, Singapore",null,null,null,2025-04-12 16:40:37.174322,2025-04-12 16:40:37.174322,SHOPPING
9058,PUNGGOL FIELD,PUNGGOL,NORTH-EAST REGION,1.39412,103.9133144,commercial.marketplace,null,Punggol New Market,"Punggol New Market, 168 Punggol Field, Singapore 820168, Singapore",null,null,null,2025-04-12 16:40:37.253241,2025-04-12 16:40:37.253241,SHOPPING
1376,SENTOSA,SOUTHERN ISLANDS,CENTRAL REGION,1.2551473,103.8193323,commercial.clothing,null,Tory Burch,"Tory Burch, 8 Sentosa Gateway, Singapore 098269, Singapore",null,null,null,2025-04-12 16:20:39.412923,2025-04-12 16:20:39.412923,APPAREL
1374,SENTOSA,SOUTHERN ISLANDS,CENTRAL REGION,1.2552497,103.8192418,commercial.clothing,null,Polo Ralph Lauren,"Polo Ralph Lauren, 8 Sentosa Gateway, Singapore 098269, Singapore",null,null,null,2025-04-12 16:20:39.345675,2025-04-12 16:20:39.345675,APPAREL
1377,SENTOSA,SOUTHERN ISLANDS,CENTRAL REGION,1.2550708,103.8194315,commercial.clothing,null,Hugo Boss,"Hugo Boss, 8 Sentosa Gateway, Singapore 098269, Singapore",null,null,null,2025-04-12 16:20:39.448181,2025-04-12 16:20:39.448181,APPAREL
6,TELOK BLANGAH DRIVE,BUKIT MERAH,CENTRAL REGION,1.27484545,103.807885154661,activity.community_center,null,Telok Blangah Community Centre,"Telok Blangah Community Centre, 450 Telok Blangah Street 31, Singapore 108943, Singapore",null,null,null,2025-04-12 16:07:01.455403,2025-04-12 16:07:01.455403,CLUBS
7,MARINE PARADE,MARINE PARADE,CENTRAL REGION,1.3036868,103.912269,activity.community_center,null,Marine Crescent Ville Residents Committee,"Marine Crescent Ville Residents Committee, 34 Marine Crescent, Singapore 440034, Singapore",null,null,null,2025-04-12 16:07:03.270397,2025-04-12 16:07:03.270397,CLUBS
8,BEDOK RESERVOIR,BEDOK,EAST REGION,1.34195125,103.919525276868,activity.sport_club,null,Aqua Adventure,"Aqua Adventure, Bedok North Road, Singapore 479276, Singapore",null,null,null,2025-04-12 16:07:05.911672,2025-04-12 16:07:05.911672,SPORTS_COMPLEX
1378,SENTOSA,SOUTHERN ISLANDS,CENTRAL REGION,1.2551057,103.8193852,commercial.clothing,null,Longchamp,"Longchamp, 8 Sentosa Gateway, Singapore 098269, Singapore",null,null,null,2025-04-12 16:20:39.510407,2025-04-12 16:20:39.510407,APPAREL
1379,SENTOSA,SOUTHERN ISLANDS,CENTRAL REGION,1.2550675,103.8193101,commercial.clothing,null,Bvlgari,"Bvlgari, 8 Sentosa Gateway, Singapore 098269, Singapore",null,null,null,2025-04-12 16:20:39.55079,2025-04-12 16:20:39.55079,APPAREL
1380,SENTOSA,SOUTHERN ISLANDS,CENTRAL REGION,1.2549949,103.8195708,commercial.clothing,null,Salvatore Ferragamo,"Salvatore Ferragamo, 8 Sentosa Gateway, Singapore 098269, Singapore",null,null,null,2025-04-12 16:20:39.585736,2025-04-12 16:20:39.585736,APPAREL
264,RIVERVALE,SENGKANG,NORTH-EAST REGION,1.3923199,103.904213,commercial.supermarket,null,NTUC FairPrice,"NTUC FairPrice, 11 Rivervale Crescent, Singapore 545082, Singapore",null,null,null,2025-04-12 16:15:53.872175,2025-04-12 16:15:53.872175,SHOPPING
266,SENGKANG TOWN CENTRE,SENGKANG,NORTH-EAST REGION,1.3916794,103.8948873,commercial.supermarket,null,Cold Storage,"Cold Storage, 1 Sengkang Square, Singapore 545078, Singapore",null,null,null,2025-04-12 16:15:53.966403,2025-04-12 16:15:53.966403,SHOPPING
1381,SENTOSA,SOUTHERN ISLANDS,CENTRAL REGION,1.2551949,103.819288,commercial.clothing,null,Michael Kors,"Michael Kors, 8 Sentosa Gateway, Singapore 098269, Singapore",null,null,null,2025-04-12 16:20:39.62083,2025-04-12 16:20:39.62083,APPAREL
1382,SENTOSA,SOUTHERN ISLANDS,CENTRAL REGION,1.2552143,103.8191599,commercial.clothing,null,Montblanc,"Montblanc, 8 Sentosa Gateway, Singapore 098269, Singapore",null,null,null,2025-04-12 16:20:39.653779,2025-04-12 16:20:39.653779,APPAREL
14,CHOA CHU KANG CENTRAL,CHOA CHU KANG,WEST REGION,1.38848065,103.747048007634,activity.sport_club,null,SAFRA Choa Chu Kang,"SAFRA Choa Chu Kang, 28 Choa Chu Kang Drive, Singapore 689964, Singapore",null,null,null,2025-04-12 16:09:38.401586,2025-04-12 16:09:38.401586,SPORTS_COMPLEX
15,KAMPONG BUGIS,KALLANG,CENTRAL REGION,1.3056985,103.8698848,activity.sport_club,null,Spanish Armada Dragon Boat,"Spanish Armada Dragon Boat, Merdeka Bridge, Singapore 119587, Singapore",null,null,null,2025-04-12 16:09:39.697679,2025-04-12 16:09:39.697679,SPORTS_COMPLEX
16,GHIM MOH,QUEENSTOWN,CENTRAL REGION,1.3102679,103.7880372,commercial.supermarket,null,Giant,"Giant, 21 Ghim Moh Road, Singapore 270021, Singapore",null,null,null,2025-04-12 16:09:48.707065,2025-04-12 16:09:48.707065,SHOPPING
18,ADMIRALTY,SEMBAWANG,NORTH REGION,1.45169075,103.828925073304,activity.community_center,null,Sembawang Community Centre,"Sembawang Community Centre, 2125 Sembawang Road, Singapore 758528, Singapore",null,null,null,2025-04-12 16:15:19.048096,2025-04-12 16:15:19.048096,CLUBS
1383,SENTOSA,SOUTHERN ISLANDS,CENTRAL REGION,1.2544534,103.8140759,commercial.clothing,null,Billabong,"Billabong, 36 Siloso Beach Walk, Singapore 099007, Singapore",null,null,null,2025-04-12 16:20:39.702457,2025-04-12 16:20:39.702457,APPAREL
20,SEMBAWANG CENTRAL,SEMBAWANG,NORTH REGION,1.44507275,103.819700576813,activity.community_center,null,Canberra Community Club,"Canberra Community Club, 2 Sembawang Crescent, Singapore 757632, Singapore",null,null,null,2025-04-12 16:15:19.156021,2025-04-12 16:15:19.156021,CLUBS
21,MIDVIEW,WOODLANDS,NORTH REGION,1.4398453,103.788233718971,activity.community_center,null,Woodlands Community Club,"Woodlands Community Club, 1 Woodlands Street 81, Singapore 738526, Singapore",null,null,null,2025-04-12 16:15:19.216634,2025-04-12 16:15:19.216634,CLUBS
22,WOODLANDS WEST,WOODLANDS,NORTH REGION,1.44060655,103.773716002414,activity.community_center,null,Marsiling Community Club,"Marsiling Community Club, 100 Admiralty Road, Singapore 739980, Singapore",null,null,null,2025-04-12 16:15:19.261361,2025-04-12 16:15:19.261361,CLUBS
23,NORTHLAND,YISHUN,NORTH REGION,1.43076275,103.838553753967,activity.community_center,null,Nee Soon East Community Club,"Nee Soon East Community Club, 1 Yishun Avenue 9, Singapore 768893, Singapore",null,null,null,2025-04-12 16:15:19.308152,2025-04-12 16:15:19.308152,CLUBS
24,FAJAR,BUKIT PANJANG,WEST REGION,1.3867971,103.771727178745,activity.community_center,null,Zhenghua Community Club,"Zhenghua Community Club, 1 Segar Road, Singapore 677738, Singapore",null,null,null,2025-04-12 16:15:19.363546,2025-04-12 16:15:19.363546,CLUBS
25,WOODLANDS EAST,WOODLANDS,NORTH REGION,1.43904565,103.80258400863,activity.community_center,null,Woodlands Galaxy Community Club,"Woodlands Galaxy Community Club, 31 Woodlands Avenue 6, Singapore 738991, Singapore",null,null,null,2025-04-12 16:15:19.409949,2025-04-12 16:15:19.409949,CLUBS
26,WOODGROVE,WOODLANDS,NORTH REGION,1.4295265,103.774823155081,activity.community_center,null,Fuchun Community Club,"Fuchun Community Club, 1 Woodlands Street 31, Singapore 738581, Singapore",null,null,null,2025-04-12 16:15:19.455398,2025-04-12 16:15:19.455398,CLUBS
27,JELEBU,BUKIT PANJANG,WEST REGION,1.376524,103.77065891257,activity.community_center,null,Bukit Panjang Community Club,"Bukit Panjang Community Club, 8 Pending Road, Singapore 678295, Singapore",null,null,null,2025-04-12 16:15:19.511736,2025-04-12 16:15:19.511736,CLUBS
28,WOODLANDS SOUTH,WOODLANDS,NORTH REGION,1.4274721,103.792160320111,activity.community_center,null,ACE The Place CC,"ACE The Place CC, 120 Woodlands Avenue 1, Singapore 739069, Singapore",null,null,null,2025-04-12 16:15:19.625938,2025-04-12 16:15:19.625938,CLUBS
29,WOODLANDS EAST,WOODLANDS,NORTH REGION,1.4398349,103.800694027332,activity.community_center,null,Kampung Admiralty,"Kampung Admiralty, 676 Woodlands Drive 71, Singapore 730676, Singapore",null,null,null,2025-04-12 16:15:19.684175,2025-04-12 16:15:19.684175,CLUBS
30,ANAK BUKIT,BUKIT TIMAH,CENTRAL REGION,1.3305961,103.776964758391,activity.community_center,null,"Children's Aid Society ""Melrose""","Children's Aid Society ""Melrose"", 503 Clementi Road, Singapore 599488, Singapore",null,null,null,2025-04-12 16:15:19.756403,2025-04-12 16:15:19.756403,CLUBS
31,SENJA,BUKIT PANJANG,WEST REGION,1.38613875,103.763177426509,activity.community_center,null,Zhenghua-Senja Square RC,"Zhenghua-Senja Square RC, Senja Link, Singapore 670643, Singapore",null,null,null,2025-04-12 16:15:19.815378,2025-04-12 16:15:19.815378,CLUBS
32,YISHUN SOUTH,YISHUN,NORTH REGION,1.41519125,103.834654781998,activity.community_center,null,Nee Soon South CC,"Nee Soon South CC, Yishun Street 81, Singapore 760845, Singapore",null,null,null,2025-04-12 16:15:19.901386,2025-04-12 16:15:19.901386,CLUBS
14366,ANAK BUKIT,BUKIT TIMAH,CENTRAL REGION,1.3363877,103.7681279,catering.cafe,null,Baker & Cook,"Baker & Cook, 21 Eng Kong Terrace, Singapore 598993, Singapore",null,null,null,2025-04-12 16:51:34.788902,2025-04-12 16:51:34.788902,CAFE
14376,ANAK BUKIT,BUKIT TIMAH,CENTRAL REGION,1.3408442,103.7733806,catering.cafe,null,The Signature Pattisserie,"The Signature Pattisserie, 21 Lorong Kilat, Singapore 598123, Singapore",null,null,null,2025-04-12 16:51:35.087018,2025-04-12 16:51:35.087018,CAFE
1386,NATIONAL UNIVERSITY OF S'PORE,QUEENSTOWN,CENTRAL REGION,1.2937479,103.784589492995,commercial.clothing,null,Muacks,"Muacks, Lower Kent Ridge Road, Singapore 119082, Singapore",null,null,null,2025-04-12 16:20:39.820679,2025-04-12 16:20:39.820679,APPAREL
1387,JURONG GATEWAY,JURONG EAST,WEST REGION,1.3331123,103.7429271,commercial.clothing,null,H&M,"H&M, 50 Jurong Gateway Road, Singapore 608549, Singapore",null,null,null,2025-04-12 16:20:39.859637,2025-04-12 16:20:39.859637,APPAREL
1388,JURONG WEST CENTRAL,JURONG WEST,WEST REGION,1.3395298,103.7064805,commercial.clothing,null,Uniqlo,"Uniqlo, 1 Jurong West Central 2, Singapore 648886, Singapore",null,null,null,2025-04-12 16:20:39.89977,2025-04-12 16:20:39.89977,APPAREL
356,LORONG AH SOO,HOUGANG,NORTH-EAST REGION,1.359484,103.8852646,commercial.supermarket,null,Lee Mart,"Lee Mart, 205 Hougang Street 21, Singapore 530205, Singapore",null,null,null,2025-04-12 16:15:57.697679,2025-04-12 16:15:57.697679,SHOPPING
1389,JURONG GATEWAY,JURONG EAST,WEST REGION,1.3333183,103.743198,commercial.clothing,null,Uniqlo,"Uniqlo, 50 Jurong Gateway Road, Singapore 608549, Singapore",null,null,null,2025-04-12 16:20:39.933432,2025-04-12 16:20:39.933432,APPAREL
277,PUNGGOL TOWN CENTRE,PUNGGOL,NORTH-EAST REGION,1.41110835,103.897531518835,commercial.supermarket,null,Prime,"Prime, 322 Sumang Walk, Singapore 820322, Singapore",null,null,null,2025-04-12 16:15:54.443891,2025-04-12 16:15:54.443891,SHOPPING
273,COMPASSVALE,SENGKANG,NORTH-EAST REGION,1.3824983,103.893624,commercial.supermarket,null,NTUC Fairprice,"NTUC FairPrice, Sengkang Central, Singapore 545061, Singapore",null,null,null,2025-04-12 16:15:54.294521,2025-04-12 16:15:54.294521,SHOPPING
275,COMPASSVALE,SENGKANG,NORTH-EAST REGION,1.3815806,103.8970373,commercial.supermarket,null,Giant,"Giant, 266 Compassvale Bow, Singapore 540266, Singapore",null,null,null,2025-04-12 16:15:54.375293,2025-04-12 16:15:54.375293,SHOPPING
284,COMPASSVALE,SENGKANG,NORTH-EAST REGION,1.3863502,103.8931925,commercial.supermarket,null,NTUC Fairprice,"NTUC FairPrice, 279 Sengkang East Avenue, Singapore 540279, Singapore",null,null,null,2025-04-12 16:15:54.746068,2025-04-12 16:15:54.746068,SHOPPING
285,ANCHORVALE,SENGKANG,NORTH-EAST REGION,1.3964212,103.8890273,commercial.supermarket,null,U Stars Supermarket,"U Stars Supermarket, 330 Anchorvale Street, Singapore 540330, Singapore",null,null,null,2025-04-12 16:15:54.773752,2025-04-12 16:15:54.773752,SHOPPING
288,SENGKANG TOWN CENTRE,SENGKANG,NORTH-EAST REGION,1.3899417,103.8928342,commercial.supermarket,null,U Stars Supermarket,"U Stars Supermarket, Sengkang East Road, Singapore 540215, Singapore",null,null,null,2025-04-12 16:15:54.926723,2025-04-12 16:15:54.926723,SHOPPING
290,ANCHORVALE,SENGKANG,NORTH-EAST REGION,1.393146,103.8870307,commercial.supermarket,null,Sheng Siong,"Sheng Siong, 351 Anchorvale Road, Singapore 540351, Singapore",null,null,null,2025-04-12 16:15:55.04112,2025-04-12 16:15:55.04112,SHOPPING
299,COMPASSVALE,SENGKANG,NORTH-EAST REGION,1.3825576,103.8922195,commercial.supermarket,null,FairPrice Finest,"FairPrice Finest, 70 Compassvale Bow, Singapore 544692, Singapore",null,null,null,2025-04-12 16:15:55.451977,2025-04-12 16:15:55.451977,SHOPPING
300,ANCHORVALE,SENGKANG,NORTH-EAST REGION,1.3968408,103.8887344,commercial.supermarket,null,NTUC Fairprice,"NTUC Fairprice, Anchorvale Street, Singapore 540339, Singapore",null,null,null,2025-04-12 16:15:55.489146,2025-04-12 16:15:55.489146,SHOPPING
341,SENGKANG TOWN CENTRE,SENGKANG,NORTH-EAST REGION,1.3952215,103.8959287,commercial.supermarket,null,Prime,"Prime, 263 Compassvale Street, Singapore 540263, Singapore",null,null,null,2025-04-12 16:15:57.063074,2025-04-12 16:15:57.063074,SHOPPING
342,RIVERVALE,SENGKANG,NORTH-EAST REGION,1.3849863,103.9017372,commercial.supermarket,null,Red Dot Supervalue,"Red Dot Supervalue, 118 Rivervale Drive, Singapore 540118, Singapore",null,null,null,2025-04-12 16:15:57.096832,2025-04-12 16:15:57.096832,SHOPPING
696,HOUGANG CENTRAL,HOUGANG,NORTH-EAST REGION,1.3717185,103.89422895,commercial.shopping_mall,null,Kang Kar Mall,"Kang Kar Mall, Hougang Avenue 10, Singapore 538766, Singapore",null,null,null,2025-04-12 16:17:16.627342,2025-04-12 16:17:16.627342,SHOPPING
37,MATILDA,PUNGGOL,NORTH-EAST REGION,1.40200955,103.899578171003,activity.community_center,null,The Lighthouse,"The Lighthouse, Punggol Walk, Singapore 821211, Singapore",null,null,null,2025-04-12 16:15:22.185266,2025-04-12 16:15:22.185266,CLUBS
343,SENGKANG TOWN CENTRE,SENGKANG,NORTH-EAST REGION,1.3857901,103.8976874,commercial.supermarket,null,Zone Minimart,"Zone Minimart, 205D Compassvale Lane, Singapore 544205, Singapore",null,null,null,2025-04-12 16:15:57.131103,2025-04-12 16:15:57.131103,SHOPPING
318,ANCHORVALE,SENGKANG,NORTH-EAST REGION,1.3990861,103.8894388,commercial.supermarket,null,Sheng Siong,"Sheng Siong, 338 Anchorvale Crescent, Singapore 540338, Singapore",null,null,null,2025-04-12 16:15:56.318784,2025-04-12 16:15:56.318784,SHOPPING
319,ANCHORVALE,SENGKANG,NORTH-EAST REGION,1.3871771,103.8905668,commercial.supermarket,null,J Mart,"J Mart, 303 Anchorvale Link, Singapore 540303, Singapore",null,null,null,2025-04-12 16:15:56.358917,2025-04-12 16:15:56.358917,SHOPPING
321,SENGKANG TOWN CENTRE,SENGKANG,NORTH-EAST REGION,1.3914056,103.8934448,commercial.supermarket,null,Sengkang Ah Eng,"Sengkang Ah Eng, 10 Sengkang Square, Singapore 544829, Singapore",null,null,null,2025-04-12 16:15:56.424683,2025-04-12 16:15:56.424683,SHOPPING
347,SENGKANG TOWN CENTRE,SENGKANG,NORTH-EAST REGION,1.3976475,103.8970036,commercial.supermarket,null,M18 Minimart,"M18 Minimart, 289C Compassvale Crescent, Singapore 543289, Singapore",null,null,null,2025-04-12 16:15:57.271777,2025-04-12 16:15:57.271777,SHOPPING
344,PUNGGOL FIELD,PUNGGOL,NORTH-EAST REGION,1.3940999,103.9132282,commercial.supermarket,null,Sri Magazine Hub,"Sri Magazine Hub, 168 Punggol Field, Singapore 820168, Singapore",null,null,null,2025-04-12 16:15:57.183823,2025-04-12 16:15:57.183823,SHOPPING
39,LORONG AH SOO,HOUGANG,NORTH-EAST REGION,1.36002805,103.885785016826,activity.community_center,null,Paya Lebar-Kovan Community Club,"Paya Lebar-Kovan Community Club, 215 Tampines Road, Singapore 530215, Singapore",null,null,null,2025-04-12 16:15:22.287225,2025-04-12 16:15:22.287225,CLUBS
357,ANCHORVALE,SENGKANG,NORTH-EAST REGION,1.3935534,103.8907848,commercial.supermarket,null,Nilaas,"Nilaas, 325A Sengkang East Way, Singapore 541325, Singapore",null,null,null,2025-04-12 16:15:57.724992,2025-04-12 16:15:57.724992,SHOPPING
40,TAMPINES WEST,TAMPINES,EAST REGION,1.3553016,103.93429964097,activity.community_center,null,Tampines Central Community Club,"Tampines Central Community Club, 866A Tampines Street 83, Singapore 521866, Singapore",null,null,null,2025-04-12 16:15:22.324055,2025-04-12 16:15:22.324055,CLUBS
41,KANGKAR,HOUGANG,NORTH-EAST REGION,1.364836,103.892571536361,activity.community_center,null,Hougang Community Club,"Hougang Community Club, 35 Hougang Avenue 3, Singapore 538840, Singapore",null,null,null,2025-04-12 16:15:22.361273,2025-04-12 16:15:22.361273,CLUBS
42,LORONG AH SOO,HOUGANG,NORTH-EAST REGION,1.35147475,103.88324188556,activity.community_center,null,Hougang Block 145,"Hougang Block 145, 145 Lorong Ah Soo, Singapore 530145, Singapore",null,null,null,2025-04-12 16:15:22.402794,2025-04-12 16:15:22.402794,CLUBS
43,HOUGANG WEST,HOUGANG,NORTH-EAST REGION,1.3742675,103.892045363131,activity.community_center,null,Punggol Community Club,"Punggol Community Club, 3 Hougang Avenue 6, Singapore 538808, Singapore",null,null,null,2025-04-12 16:15:22.479368,2025-04-12 16:15:22.479368,CLUBS
372,COMPASSVALE,SENGKANG,NORTH-EAST REGION,1.3824956,103.8910837,commercial.supermarket,null,Welcome Trading And Supermart,"Welcome Trading And Supermart, 274D Compassvale Bow, Singapore 543278, Singapore",null,null,null,2025-04-12 16:15:58.402441,2025-04-12 16:15:58.402441,SHOPPING
373,COMPASSVALE,SENGKANG,NORTH-EAST REGION,1.3825034,103.8911103,commercial.supermarket,null,Muslim Food @ 274D Compassvale,"Muslim Food @ 274D Compassvale, 274D Compassvale Bow, Singapore 543278, Singapore",null,null,null,2025-04-12 16:15:58.4467,2025-04-12 16:15:58.4467,SHOPPING
374,SENGKANG TOWN CENTRE,SENGKANG,NORTH-EAST REGION,1.3898654,103.8927811,commercial.supermarket,null,Rui Xia Store,"Rui Xia Store, Sengkang East Road, Singapore 540215, Singapore",null,null,null,2025-04-12 16:15:58.483808,2025-04-12 16:15:58.483808,SHOPPING
1399,TOH GUAN,JURONG EAST,WEST REGION,1.3353975,103.7466307,commercial.clothing,null,Bata,"Bata, #01-29 J-Walk, Singapore 609601, Singapore",null,null,null,2025-04-12 16:20:40.321085,2025-04-12 16:20:40.321085,APPAREL
376,SENGKANG TOWN CENTRE,SENGKANG,NORTH-EAST REGION,1.3916336,103.8932785,commercial.supermarket,null,Hoseh Mart,"Hoseh Mart, 10 Sengkang Square, Singapore 544829, Singapore",null,null,null,2025-04-12 16:15:58.564875,2025-04-12 16:15:58.564875,SHOPPING
384,COMPASSVALE,SENGKANG,NORTH-EAST REGION,1.3808334,103.8931712,commercial.supermarket,null,Kalam Mart,"Kalam Mart, Sengkang Central, Singapore 544693, Singapore",null,null,null,2025-04-12 16:15:58.861219,2025-04-12 16:15:58.861219,SHOPPING
44,PASIR RIS WEST,PASIR RIS,EAST REGION,1.37840315,103.942671402807,activity.community_center,null,Pasir Ris Elias Community Club,"Pasir Ris Elias Community Club, 93 Pasir Ris Drive 3, Singapore 519498, Singapore",null,null,null,2025-04-12 16:15:22.528177,2025-04-12 16:15:22.528177,CLUBS
358,NORTHSHORE,PUNGGOL,NORTH-EAST REGION,1.4169957,103.9019048,commercial.supermarket,null,Redman,"Redman, 407 Northshore Drive, Singapore 820407, Singapore",null,null,null,2025-04-12 16:15:57.753739,2025-04-12 16:15:57.753739,SHOPPING
45,PUNGGOL FIELD,PUNGGOL,NORTH-EAST REGION,1.3935294,103.913581275121,activity.community_center,null,Punggol 21 Community Club,"Punggol 21 Community Club, 80 Punggol Field, Singapore 828815, Singapore",null,null,null,2025-04-12 16:15:22.584389,2025-04-12 16:15:22.584389,CLUBS
46,TAMPINES WEST,TAMPINES,EAST REGION,1.3487674,103.935725375566,activity.community_center,null,Tampines West Community Club,"Tampines West Community Club, 5 Tampines Avenue 3, Singapore 529705, Singapore",null,null,null,2025-04-12 16:15:22.634296,2025-04-12 16:15:22.634296,CLUBS
47,PASIR RIS DRIVE,PASIR RIS,EAST REGION,1.36847795,103.959409890823,activity.community_center,null,Pasir Ris East Community Club,"Pasir Ris East Community Club, 1 Pasir Ris Drive 4, Singapore 519457, Singapore",null,null,null,2025-04-12 16:15:22.66897,2025-04-12 16:15:22.66897,CLUBS
48,TAMPINES EAST,TAMPINES,EAST REGION,1.3572829,103.946663370956,activity.community_center,null,Tampines North Community Club,"Tampines North Community Club, 2 Tampines Street 41, Singapore 529204, Singapore",null,null,null,2025-04-12 16:15:22.720466,2025-04-12 16:15:22.720466,CLUBS
49,KAKI BUKIT,BEDOK,EAST REGION,1.3324962,103.915203401099,activity.community_center,null,Eunos Community Club,"Eunos Community Club, 180 Bedok Reservoir Road, Singapore 479220, Singapore",null,null,null,2025-04-12 16:15:22.763254,2025-04-12 16:15:22.763254,CLUBS
50,LORONG AH SOO,HOUGANG,NORTH-EAST REGION,1.35779055,103.886198233113,activity.community_center,null,Paya Lebar Kovan Community Club,"Paya Lebar Kovan Community Club, 207 Hougang Street 21, Singapore 530207, Singapore",null,null,null,2025-04-12 16:15:22.803463,2025-04-12 16:15:22.803463,CLUBS
52,TAMPINES EAST,TAMPINES,EAST REGION,1.3458286,103.947694982705,activity.community_center,null,Tampines Changkat Community Club,"Tampines Changkat Community Club, 13 Tampines Street 11, Singapore 529453, Singapore",null,null,null,2025-04-12 16:15:22.90121,2025-04-12 16:15:22.90121,CLUBS
53,TAMPINES EAST,TAMPINES,EAST REGION,1.35336835,103.954596691739,activity.community_center,null,Tampines East Community Club,"Tampines East Community Club, 10 Tampines Street 23, Singapore 529341, Singapore",null,null,null,2025-04-12 16:15:22.98649,2025-04-12 16:15:22.98649,CLUBS
398,YUNNAN,JURONG WEST,WEST REGION,1.3417008,103.6912824,commercial.supermarket,null,Prime Supermarket,"Prime Supermarket, 962 Jurong West Street 91, Singapore 640962, Singapore",null,null,null,2025-04-12 16:16:09.159361,2025-04-12 16:16:09.159361,SHOPPING
1326,SENGKANG TOWN CENTRE,SENGKANG,NORTH-EAST REGION,1.3921718,103.8950319,commercial.clothing,null,Skechers,"Skechers, 1 Sengkang Square, Singapore 545078, Singapore",null,null,null,2025-04-12 16:20:27.29802,2025-04-12 16:20:27.29802,APPAREL
55,LORONG AH SOO,HOUGANG,NORTH-EAST REGION,1.3548845,103.889667,activity.community_center,null,Aljunied Community Centre,"Aljunied Community Centre, 110 Hougang Avenue 1, Singapore 530110, Singapore",null,null,null,2025-04-12 16:15:23.086159,2025-04-12 16:15:23.086159,CLUBS
57,TAMPINES WEST,TAMPINES,EAST REGION,1.3535243,103.9403212,activity.community_center,null,HomeTeamNS,"HomeTeamNS, 51 Tampines Avenue 4, Singapore 529684, Singapore",null,null,null,2025-04-12 16:15:23.187899,2025-04-12 16:15:23.187899,CLUBS
58,TAMPINES NORTH,TAMPINES,EAST REGION,1.3615475,103.9401756,activity.community_center,null,Residents' Committee Centre,"Residents' Committee Centre, 618 Tampines Avenue 12, Singapore 520618, Singapore",null,null,null,2025-04-12 16:15:23.262734,2025-04-12 16:15:23.262734,CLUBS
59,HOUGANG EAST,HOUGANG,NORTH-EAST REGION,1.3753021,103.8968721,activity.community_center,null,Bedok Reservoir Punggol Harmony RC,"Bedok Reservoir Punggol Harmony RC, Hougang Avenue 8, Singapore 530401, Singapore",null,null,null,2025-04-12 16:15:23.296876,2025-04-12 16:15:23.296876,CLUBS
65,HOUGANG WEST,HOUGANG,NORTH-EAST REGION,1.3778375,103.8913282,activity.community_center,null,Glory Centre Community Services Association,"Glory Centre Community Services Association, Hougang Avenue 8, Singapore 530542, Singapore",null,null,null,2025-04-12 16:15:23.532788,2025-04-12 16:15:23.532788,CLUBS
66,HOUGANG WEST,HOUGANG,NORTH-EAST REGION,1.3775502,103.8895838,activity.community_center,null,Angsana RC @ Sengkang South,"Angsana RC @ Sengkang South, 536 Hougang Street 51, Singapore 531699, Singapore",null,null,null,2025-04-12 16:15:23.618772,2025-04-12 16:15:23.618772,CLUBS
67,HOUGANG WEST,HOUGANG,NORTH-EAST REGION,1.3753123,103.8883876,activity.community_center,null,Acacia @ Sengkang South,"Acacia @ Sengkang South, 698C Hougang Avenue 8, Singapore 538793, Singapore",null,null,null,2025-04-12 16:15:23.655934,2025-04-12 16:15:23.655934,CLUBS
68,HOUGANG WEST,HOUGANG,NORTH-EAST REGION,1.3697046,103.8845747,activity.community_center,null,MWS Covenant Family Service Centre Hougang,"MWS Covenant Family Service Centre Hougang, 613 Hougang Avenue 8, Singapore 538784, Singapore",null,null,null,2025-04-12 16:15:23.733613,2025-04-12 16:15:23.733613,CLUBS
75,MATILDA,PUNGGOL,NORTH-EAST REGION,1.4026675,103.9014116,activity.community_center,null,Punggol Gems Residents' Network,"Punggol Gems Residents' Network, 273D Punggol Place, Singapore 824273, Singapore",null,null,null,2025-04-12 16:15:24.165107,2025-04-12 16:15:24.165107,CLUBS
77,HOUGANG WEST,HOUGANG,NORTH-EAST REGION,1.3733856,103.8912945,activity.community_center,null,Bedok Reservoir-Punggol Crest Residents' Committee,"Bedok Reservoir-Punggol Crest Residents' Committee, 521 Hougang Avenue 6, Singapore 530426, Singapore",null,null,null,2025-04-12 16:15:24.269807,2025-04-12 16:15:24.269807,CLUBS
14414,ANAK BUKIT,BUKIT TIMAH,CENTRAL REGION,1.342311,103.7762691,catering.cafe,null,Chirashi-Ai Cafe @ Beauty World Centre | Floor 1,"Chirashi-Ai Cafe @ Beauty World Centre | Floor 1, Upper Bukit Timah Road, Singapore 588177, Singapore",null,null,null,2025-04-12 16:51:36.277588,2025-04-12 16:51:36.277588,CAFE
78,PUNGGOL TOWN CENTRE,PUNGGOL,NORTH-EAST REGION,1.4111773,103.9007599,activity.community_center,null,Punggol Parc Terraces Residents' Network,"Punggol Parc Terraces Residents' Network, 312B Sumang Link, Singapore 822312, Singapore",null,null,null,2025-04-12 16:15:24.316223,2025-04-12 16:15:24.316223,CLUBS
81,PUNGGOL TOWN CENTRE,PUNGGOL,NORTH-EAST REGION,1.4088759,103.9052875,activity.community_center,null,One Punggol Community Club,"One Punggol Community Club, 1 Punggol Drive, Singapore 828629, Singapore",null,null,null,2025-04-12 16:15:24.453986,2025-04-12 16:15:24.453986,CLUBS
83,HOUGANG WEST,HOUGANG,NORTH-EAST REGION,1.3705106,103.8822018,activity.community_center,null,Ang Mo Kio-Hougang Rainforrest Centre,"Ang Mo Kio-Hougang Rainforrest Centre, 623 Hougang Avenue 8, Singapore 538784, Singapore",null,null,null,2025-04-12 16:15:24.580647,2025-04-12 16:15:24.580647,CLUBS
84,HOUGANG EAST,HOUGANG,NORTH-EAST REGION,1.3744457,103.8942561,activity.community_center,null,Bedok Reservoir-Punggol Heights,"Bedok Reservoir-Punggol Heights, Hougang Avenue 10, Singapore 540424, Singapore",null,null,null,2025-04-12 16:15:24.626962,2025-04-12 16:15:24.626962,CLUBS
1113,KEMBANGAN,BEDOK,EAST REGION,1.3193291,103.9129303,commercial.vehicle,null,Heng Motor,"Heng Motor, Changi Road, Singapore 419886, Singapore",null,null,null,2025-04-12 16:18:54.910362,2025-04-12 16:18:54.910362,VEHICLE
89,BOON LAY PLACE,JURONG WEST,WEST REGION,1.3510113,103.7120806,activity.community_center,null,Boon Lay View RC,"Boon Lay View RC, 218D Boon Lay Avenue, Singapore 644218, Singapore",null,null,null,2025-04-12 16:15:27.02738,2025-04-12 16:15:27.02738,CLUBS
90,HILLVIEW,BUKIT BATOK,WEST REGION,1.3619511,103.764267066581,activity.community_center,null,Hillview Community Club,"Hillview Community Club, 1 Hillview Rise, Singapore 667970, Singapore",null,null,null,2025-04-12 16:15:27.079772,2025-04-12 16:15:27.079772,CLUBS
91,CLEMENTI NORTH,CLEMENTI,WEST REGION,1.3188743,103.768095900382,activity.community_center,null,Clementi Community Club,"Clementi Community Club, 220 Clementi Avenue 4, Singapore 129880, Singapore",null,null,null,2025-04-12 16:15:27.111654,2025-04-12 16:15:27.111654,CLUBS
92,YUNNAN,JURONG WEST,WEST REGION,1.3486666,103.698809549563,activity.community_center,null,Gek Poh Ville Community Club,"Gek Poh Ville Community Club, 1 Jurong West Street 74, Singapore 649149, Singapore",null,null,null,2025-04-12 16:15:27.175211,2025-04-12 16:15:27.175211,CLUBS
93,JURONG WEST CENTRAL,JURONG WEST,WEST REGION,1.3403084,103.704466000482,activity.community_center,null,The Frontier Community Club,"The Frontier Community Club, 60 Jurong West Central 3, Singapore 648346, Singapore",null,null,null,2025-04-12 16:15:27.214923,2025-04-12 16:15:27.214923,CLUBS
94,BOON LAY PLACE,JURONG WEST,WEST REGION,1.3483337,103.711377206837,activity.community_center,null,Boon Lay Community Centre,"Boon Lay Community Centre, 10 Boon Lay Place, Singapore 649882, Singapore",null,null,null,2025-04-12 16:15:27.272843,2025-04-12 16:15:27.272843,CLUBS
95,TAMAN JURONG,JURONG WEST,WEST REGION,1.33533,103.721849505963,activity.community_center,null,Taman Jurong Community Club,"Taman Jurong Community Club, 1 Yung Sheng Road, Singapore 618495, Singapore",null,null,null,2025-04-12 16:15:27.316435,2025-04-12 16:15:27.316435,CLUBS
96,HONG KAH,JURONG WEST,WEST REGION,1.3504821,103.725462172455,activity.community_center,null,Jurong Green Community Club,"Jurong Green Community Club, 6 Jurong West Avenue 1, Singapore 649520, Singapore",null,null,null,2025-04-12 16:15:27.372274,2025-04-12 16:15:27.372274,CLUBS
97,YUHUA EAST,JURONG EAST,WEST REGION,1.33987495,103.73712003601,activity.community_center,null,Yuhua Community Club,"Yuhua Community Club, 90 Boon Lay Way, Singapore 609958, Singapore",null,null,null,2025-04-12 16:15:27.42108,2025-04-12 16:15:27.42108,CLUBS
99,BUKIT BATOK EAST,BUKIT BATOK,WEST REGION,1.3488872,103.758345705952,activity.community_center,null,Bukit Batok East Community Club,"Bukit Batok East Community Club, 23 Bukit Batok East Avenue 4, Singapore 659841, Singapore",null,null,null,2025-04-12 16:15:27.547493,2025-04-12 16:15:27.547493,CLUBS
101,HONG KAH NORTH,BUKIT BATOK,WEST REGION,1.35925705,103.749539661674,activity.community_center,null,Hong Kah North Community Club,"Hong Kah North Community Club, 30 Bukit Batok Street 31, Singapore 659440, Singapore",null,null,null,2025-04-12 16:15:27.720774,2025-04-12 16:15:27.720774,CLUBS
102,CLEMENTI WEST,CLEMENTI,WEST REGION,1.3027503,103.764926454515,activity.community_center,null,West Coast Community Centre,"West Coast Community Centre, 2 Clementi West Street 2, Singapore 129605, Singapore",null,null,null,2025-04-12 16:15:27.765383,2025-04-12 16:15:27.765383,CLUBS
441,ONE NORTH,QUEENSTOWN,CENTRAL REGION,1.2994693,103.787506,commercial.supermarket,null,Cold Storage,"Cold Storage, 1 Fusionopolis Way, Singapore 138632, Singapore",null,null,null,2025-04-12 16:16:12.087995,2025-04-12 16:16:12.087995,SHOPPING
103,TECK WHYE,CHOA CHU KANG,WEST REGION,1.3811599,103.751751060322,activity.community_center,null,Chua Chu Kang Community Club,"Chua Chu Kang Community Club, 35 Teck Whye Avenue, Singapore 688892, Singapore",null,null,null,2025-04-12 16:15:27.810732,2025-04-12 16:15:27.810732,CLUBS
104,CHOA CHU KANG NORTH,CHOA CHU KANG,WEST REGION,1.3947929,103.744769829285,activity.community_center,null,Yew Tee Community Club,"Yew Tee Community Club, 20 Choa Chu Kang Street 52, Singapore 689286, Singapore",null,null,null,2025-04-12 16:15:27.853351,2025-04-12 16:15:27.853351,CLUBS
105,YUNNAN,JURONG WEST,WEST REGION,1.34245605,103.692384208342,activity.community_center,null,Nanyang Community Club,"Nanyang Community Club, 60 Jurong West Street 91, Singapore 649040, Singapore",null,null,null,2025-04-12 16:15:27.894971,2025-04-12 16:15:27.894971,CLUBS
16720,ANAK BUKIT,BUKIT TIMAH,CENTRAL REGION,1.3419858,103.7754522,service.beauty,null,Tang Dynasty,"Tang Dynasty, Chun Tin Road, Singapore 599595, Singapore",null,null,null,2025-04-12 16:56:25.970886,2025-04-12 16:56:25.970886,PERSONAL_CARE
16722,ANAK BUKIT,BUKIT TIMAH,CENTRAL REGION,1.3419924,103.7746738,service.beauty,null,Palace Therapy,"Palace Therapy, Chun Tin Road, Singapore 596314, Singapore",null,null,null,2025-04-12 16:56:26.035799,2025-04-12 16:56:26.035799,PERSONAL_CARE
16723,ANAK BUKIT,BUKIT TIMAH,CENTRAL REGION,1.3406949,103.7726526,service.beauty,null,House of Traditional Javanese Massage,"House of Traditional Javanese Massage, Jalan Jurong Kechil, Singapore 596569, Singapore",null,null,null,2025-04-12 16:56:26.066871,2025-04-12 16:56:26.066871,PERSONAL_CARE
1391,JURONG GATEWAY,JURONG EAST,WEST REGION,1.3331074,103.7430848,commercial.clothing,null,Charles & Keith,"Charles & Keith, 50 Jurong Gateway Road, Singapore 608549, Singapore",null,null,null,2025-04-12 16:20:40.023807,2025-04-12 16:20:40.023807,APPAREL
108,CHOA CHU KANG CENTRAL,CHOA CHU KANG,WEST REGION,1.38410495,103.744959366451,activity.community_center,null,Keat Hong Community Club,"Keat Hong Community Club, 2 Choa Chu Kang Loop, Singapore 689687, Singapore",null,null,null,2025-04-12 16:15:27.997929,2025-04-12 16:15:27.997929,CLUBS
370,TAMPINES EAST,TAMPINES,EAST REGION,1.3483943,103.9481354,commercial.supermarket,null,NTUC FairPrice,"NTUC FairPrice, 107 Tampines Street 11, Singapore 521107, Singapore",null,null,null,2025-04-12 16:15:58.306954,2025-04-12 16:15:58.306954,SHOPPING
381,PUNGGOL TOWN CENTRE,PUNGGOL,NORTH-EAST REGION,1.4068218,103.9029569,commercial.supermarket,null,Scarlett,"Scarlett, 83 Punggol Central, Singapore 828763, Singapore",null,null,null,2025-04-12 16:15:58.744038,2025-04-12 16:15:58.744038,SHOPPING
109,CLEMENTI WOODS,CLEMENTI,WEST REGION,1.309688,103.7687168,activity.community_center,null,Casa Clementi Residents' Committee,"Casa Clementi Residents' Committee, 420A Clementi Avenue 1, Singapore 121420, Singapore",null,null,null,2025-04-12 16:15:28.036379,2025-04-12 16:15:28.036379,CLUBS
110,GOMBAK,BUKIT BATOK,WEST REGION,1.3639965,103.7527407,activity.community_center,null,Bukit Gombak Community Centre,"Bukit Gombak Community Centre, 386 Bukit Batok West Avenue 5, Singapore 650386, Singapore",null,null,null,2025-04-12 16:15:28.074065,2025-04-12 16:15:28.074065,CLUBS
111,DOVER,QUEENSTOWN,CENTRAL REGION,1.3024216,103.7834794,activity.community_center,null,Dover Community Centre,"Dover Community Centre, 1 Dover Road, Singapore 130001, Singapore",null,null,null,2025-04-12 16:15:28.109094,2025-04-12 16:15:28.109094,CLUBS
112,MURAI,WESTERN WATER CATCHMENT,WEST REGION,1.37222,103.7016566,activity.community_center,null,Teen Challenge Singapore,"Teen Challenge Singapore, Old Choa Chu Kang Road, Singapore 649734, Singapore",null,null,null,2025-04-12 16:15:28.15796,2025-04-12 16:15:28.15796,CLUBS
113,HONG KAH NORTH,BUKIT BATOK,WEST REGION,1.3586722,103.7513271,activity.community_center,null,Bukit Gombak Neighbourhood Centre,"Bukit Gombak Neighbourhood Centre, Bukit Batok West Avenue 5, Singapore 650372, Singapore",null,null,null,2025-04-12 16:15:28.243423,2025-04-12 16:15:28.243423,CLUBS
114,BUKIT BATOK SOUTH,BUKIT BATOK,WEST REGION,1.3437996,103.7472366,activity.community_center,null,Bukit Batok Zone 11 Residents Network,"Bukit Batok Zone 11 Residents Network, Pan-Island Expressway, Singapore 650296, Singapore",null,null,null,2025-04-12 16:15:28.296004,2025-04-12 16:15:28.296004,CLUBS
115,TOH GUAN,JURONG EAST,WEST REGION,1.3394191,103.7434503,activity.community_center,null,Community Center,"Community Center, 288C Jurong East Street 21, Singapore 603288, Singapore",null,null,null,2025-04-12 16:15:28.342146,2025-04-12 16:15:28.342146,CLUBS
1392,JURONG WEST CENTRAL,JURONG WEST,WEST REGION,1.3392543,103.7049207,commercial.clothing,null,Charles & Keith,"Charles & Keith, 1 Jurong West Central 2, Singapore 648886, Singapore",null,null,null,2025-04-12 16:20:40.061069,2025-04-12 16:20:40.061069,APPAREL
116,TEBAN GARDENS,JURONG EAST,WEST REGION,1.3188931,103.7486346,activity.community_center,null,RC Centre,"RC Centre, 407 Pandan Gardens, Singapore 600413, Singapore",null,null,null,2025-04-12 16:15:28.447187,2025-04-12 16:15:28.447187,CLUBS
117,BUKIT BATOK WEST,BUKIT BATOK,WEST REGION,1.3506635,103.743176,activity.community_center,null,Lhorna,"Lhorna, Bukit Batok West Avenue 3, Singapore 659168, Singapore",null,null,null,2025-04-12 16:15:28.534095,2025-04-12 16:15:28.534095,CLUBS
123,SERANGOON GARDEN,SERANGOON,NORTH-EAST REGION,1.3700922,103.874013140153,activity.community_center,null,The Serangoon CC,"The Serangoon CC, 10 Serangoon North Avenue 2, Singapore 555877, Singapore",null,null,null,2025-04-12 16:15:30.287935,2025-04-12 16:15:30.287935,CLUBS
124,KAMPONG UBI,GEYLANG,CENTRAL REGION,1.3320116,103.890991,activity.community_center,null,Games Garage,"Games Garage, Ubi Road 1, Singapore 408730, Singapore",null,null,null,2025-04-12 16:15:30.351867,2025-04-12 16:15:30.351867,CLUBS
125,MACPHERSON,GEYLANG,CENTRAL REGION,1.3229745,103.8853781,activity.community_center,null,Life Edu Services,"Life Edu Services, 01-999 Circuit Road, Singapore 370086, Singapore",null,null,null,2025-04-12 16:15:30.388538,2025-04-12 16:15:30.388538,CLUBS
126,MACPHERSON,GEYLANG,CENTRAL REGION,1.3235861,103.884610029374,activity.community_center,null,MacPherson Community Club,"MacPherson Community Club, 400 Paya Lebar Way, Singapore 379131, Singapore",null,null,null,2025-04-12 16:15:30.421235,2025-04-12 16:15:30.421235,CLUBS
127,KATONG,MARINE PARADE,CENTRAL REGION,1.3074844,103.903987686849,activity.community_center,null,Joo Chiat Community Club,"Joo Chiat Community Club, 405 Joo Chiat Road, Singapore 427633, Singapore",null,null,null,2025-04-12 16:15:30.463668,2025-04-12 16:15:30.463668,CLUBS
128,FRANKEL,BEDOK,EAST REGION,1.31324155,103.930815577752,activity.community_center,null,Siglap South Community Centre,"Siglap South Community Centre, 6 Palm Road, Singapore 456441, Singapore",null,null,null,2025-04-12 16:15:30.50118,2025-04-12 16:15:30.50118,CLUBS
129,BEDOK NORTH,BEDOK,EAST REGION,1.3307593,103.936633137379,activity.community_center,null,Fengshan Community Club,"Fengshan Community Club, 20 Bedok North Street 2, Singapore 469644, Singapore",null,null,null,2025-04-12 16:15:30.537408,2025-04-12 16:15:30.537408,CLUBS
421,KEAT HONG,CHOA CHU KANG,WEST REGION,1.3778764,103.7494081,commercial.supermarket,null,U Stars Mega Mart,"U Stars Mega Mart, 817 Keat Hong Link, Singapore 680817, Singapore",null,null,null,2025-04-12 16:16:10.598655,2025-04-12 16:16:10.598655,SHOPPING
16739,ANAK BUKIT,BUKIT TIMAH,CENTRAL REGION,1.3399805,103.7732955,service.beauty,null,G1 Hair Studio,"G1 Hair Studio, 18 Toh Yi Drive, Singapore 590018, Singapore",null,null,null,2025-04-12 16:56:26.535326,2025-04-12 16:56:26.535326,PERSONAL_CARE
14476,ANAK BUKIT,BUKIT TIMAH,CENTRAL REGION,1.3408716,103.7724164,catering.cafe,null,Flagwhite,"Flagwhite, Lorong Kilat, Singapore 596569, Singapore",null,null,null,2025-04-12 16:51:38.097573,2025-04-12 16:51:38.097573,CAFE
142,MARINE PARADE,MARINE PARADE,CENTRAL REGION,1.3049012,103.9095011,activity.community_center,null,Marine Parade Community Club,"Marine Parade Community Club, 278 Marine Parade Road, Singapore 449282, Singapore",null,null,null,2025-04-12 16:15:31.176181,2025-04-12 16:15:31.176181,CLUBS
1407,JURONG WEST CENTRAL,JURONG WEST,WEST REGION,1.3402842,103.706093,commercial.clothing,null,Triumph,"Triumph, 1 Jurong West Central 2, Singapore 648886, Singapore",null,null,null,2025-04-12 16:20:40.631866,2025-04-12 16:20:40.631866,APPAREL
143,BEDOK NORTH,BEDOK,EAST REGION,1.3267159,103.9323136,activity.community_center,null,Kampung Chai Chee Community Club,"Kampung Chai Chee Community Club, Bedok North Street 1, Singapore 460410, Singapore",null,null,null,2025-04-12 16:15:31.21999,2025-04-12 16:15:31.21999,CLUBS
144,TANJONG RHU,KALLANG,CENTRAL REGION,1.3020714,103.8762519,activity.community_center,null,TOUCH Youth,"TOUCH Youth, Stadium Walk, Singapore 397693, Singapore",null,null,null,2025-04-12 16:15:31.31934,2025-04-12 16:15:31.31934,CLUBS
146,GEYLANG EAST,GEYLANG,CENTRAL REGION,1.3166221,103.8969889,activity.community_center,null,Geylang Serai Community Club,"Geylang Serai Community Club, 1 Engku Aman Turn, Singapore 408528, Singapore",null,null,null,2025-04-12 16:15:31.415738,2025-04-12 16:15:31.415738,CLUBS
147,SERANGOON CENTRAL,SERANGOON,NORTH-EAST REGION,1.3529395,103.8675217,activity.community_center,null,Braddell Heights Zone F RC,"Braddell Heights Zone F RC, 318 Serangoon Avenue 2, Singapore 550318, Singapore",null,null,null,2025-04-12 16:15:31.451719,2025-04-12 16:15:31.451719,CLUBS
148,GEYLANG EAST,GEYLANG,CENTRAL REGION,1.3206612,103.9032557,activity.community_center,null,Tembusu Senior Activity Centre,"Tembusu Senior Activity Centre, 3 Eunos Crescent, Singapore 400003, Singapore",null,null,null,2025-04-12 16:15:31.481834,2025-04-12 16:15:31.481834,CLUBS
149,GEYLANG EAST,GEYLANG,CENTRAL REGION,1.3208497,103.9032334,activity.community_center,null,Shan You Wellness Community,"Shan You Wellness Community, 3 Eunos Crescent, Singapore 400003, Singapore",null,null,null,2025-04-12 16:15:31.516723,2025-04-12 16:15:31.516723,CLUBS
150,GEYLANG EAST,GEYLANG,CENTRAL REGION,1.3204932,103.9032744,activity.community_center,null,THK Pan-Disability Centre @ Eunos,"THK Pan-Disability Centre @ Eunos, 3 Eunos Crescent, Singapore 400003, Singapore",null,null,null,2025-04-12 16:15:31.59021,2025-04-12 16:15:31.59021,CLUBS
151,GEYLANG EAST,GEYLANG,CENTRAL REGION,1.3164321,103.8970549,activity.community_center,null,PPIS Family Service Centre (East),"PPIS Family Service Centre (East), 1 Engku Aman Turn, Singapore 408528, Singapore",null,null,null,2025-04-12 16:15:31.625256,2025-04-12 16:15:31.625256,CLUBS
152,BIDADARI,TOA PAYOH,CENTRAL REGION,1.3390953,103.8718975,activity.community_center,null,Bidadari Community Club,"Bidadari Community Club, 29 Bidadari Park Drive, Singapore 363201, Singapore",null,null,null,2025-04-12 16:15:31.662594,2025-04-12 16:15:31.662594,CLUBS
1393,JURONG WEST CENTRAL,JURONG WEST,WEST REGION,1.3397981,103.7062886,commercial.clothing,null,Cotton On,"Cotton On, #01-15/16 Boon Lay Bus Interchange, Singapore 648886, Singapore",null,null,null,2025-04-12 16:20:40.096256,2025-04-12 16:20:40.096256,APPAREL
154,BEDOK RESERVOIR,BEDOK,EAST REGION,1.34139315,103.919414863971,activity.sport_club,null,HomeTeamNS Bedok Clubhouse,"HomeTeamNS Bedok Clubhouse, Bedok North Road, Singapore 479276, Singapore",null,null,null,2025-04-12 16:15:32.410641,2025-04-12 16:15:32.410641,SPORTS_COMPLEX
155,NORTHSHORE,PUNGGOL,NORTH-EAST REGION,1.4169443,103.9022406,activity.sport_club,null,Kickmatics Taekwondo,"Kickmatics Taekwondo, 407 Northshore Drive, Singapore 820407, Singapore",null,null,null,2025-04-12 16:15:32.459052,2025-04-12 16:15:32.459052,SPORTS_COMPLEX
156,PUNGGOL TOWN CENTRE,PUNGGOL,NORTH-EAST REGION,1.4104499,103.9062295,activity.sport_club,null,Taekwondonomics,"Taekwondonomics, Punggol Waterway, Singapore 823679, Singapore",null,null,null,2025-04-12 16:15:32.495585,2025-04-12 16:15:32.495585,SPORTS_COMPLEX
158,BEDOK RESERVOIR,BEDOK,EAST REGION,1.3414466,103.9190827,activity.sport_club,null,Action Motion,"Action Motion, Bedok North Road, Singapore 479276, Singapore",null,null,null,2025-04-12 16:15:32.609858,2025-04-12 16:15:32.609858,SPORTS_COMPLEX
159,BEDOK RESERVOIR,BEDOK,EAST REGION,1.3416423,103.9192946,activity.sport_club,null,Trifecta,"Trifecta, Bedok North Road, Singapore 479276, Singapore",null,null,null,2025-04-12 16:15:32.644657,2025-04-12 16:15:32.644657,SPORTS_COMPLEX
160,HOUGANG CENTRAL,HOUGANG,NORTH-EAST REGION,1.3704584,103.8953634,activity.sport_club,null,Kicks Taekwondo,"Kicks Taekwondo, Hougang Avenue 10, Singapore 530362, Singapore",null,null,null,2025-04-12 16:15:32.680538,2025-04-12 16:15:32.680538,SPORTS_COMPLEX
1394,CLEMENTI CENTRAL,CLEMENTI,WEST REGION,1.3149326,103.7643456,commercial.clothing,null,Cotton On,"Cotton On, #03-07/08 Clementi Bus Interchange, Singapore 129588, Singapore",null,null,null,2025-04-12 16:20:40.128576,2025-04-12 16:20:40.128576,APPAREL
162,LIM CHU KANG,LIM CHU KANG,NORTH REGION,1.424648,103.7287395,activity.sport_club,null,Kranji Sanctuary Golf Club,"Kranji Sanctuary Golf Club, Neo Tiew Lane 3, Singapore 718828, Singapore",null,null,null,2025-04-12 16:15:34.405784,2025-04-12 16:15:34.405784,SPORTS_COMPLEX
1395,TOH GUAN,JURONG EAST,WEST REGION,1.334612,103.7472022,commercial.clothing,null,Cotton On,"Cotton On, #01-33 Entrance, Singapore 609601, Singapore",null,null,null,2025-04-12 16:20:40.163228,2025-04-12 16:20:40.163228,APPAREL
164,KAMPONG BUGIS,KALLANG,CENTRAL REGION,1.3058902,103.869957759235,activity.sport_club,null,Kallang SDBA Nursery,"Kallang SDBA Nursery, Stadium Road, Singapore 119587, Singapore",null,null,null,2025-04-12 16:15:35.825319,2025-04-12 16:15:35.825319,SPORTS_COMPLEX
165,GEYLANG EAST,GEYLANG,CENTRAL REGION,1.3129548,103.9000406,activity.sport_club,null,Qian Xi Basketball Club,"Qian Xi Basketball Club, 149 Joo Chiat Road, Singapore 427427, Singapore",null,null,null,2025-04-12 16:15:35.925094,2025-04-12 16:15:35.925094,SPORTS_COMPLEX
166,KAMPONG BUGIS,KALLANG,CENTRAL REGION,1.3059305,103.8699705,activity.sport_club,null,American Dragons Singapore,"American Dragons Singapore, Stadium Road, Singapore 119587, Singapore",null,null,null,2025-04-12 16:15:36.126536,2025-04-12 16:15:36.126536,SPORTS_COMPLEX
167,GEYLANG EAST,GEYLANG,CENTRAL REGION,1.3144222,103.8948833,activity.sport_club,null,Evolve,"Evolve, 11 Tanjong Katong Road, Singapore 437157, Singapore",null,null,null,2025-04-12 16:15:36.229187,2025-04-12 16:15:36.229187,SPORTS_COMPLEX
524,TANJONG RHU,KALLANG,CENTRAL REGION,1.3041749,103.8728359,commercial.supermarket,null,FairPrice Xtra @ Sports Hub,"FairPrice Xtra @ Sports Hub, Stadium Place, Singapore 397628, Singapore",null,null,null,2025-04-12 16:16:21.547921,2025-04-12 16:16:21.547921,SHOPPING
169,MARINE PARADE,MARINE PARADE,CENTRAL REGION,1.3047384,103.9041466,activity.sport_club,null,Annyeong Club,"Annyeong Club, East Coast Road, Singapore 428791, Singapore",null,null,null,2025-04-12 16:15:36.320144,2025-04-12 16:15:36.320144,SPORTS_COMPLEX
170,TANJONG RHU,KALLANG,CENTRAL REGION,1.3031873,103.8732383,activity.sport_club,null,Han Taekwondo,"Han Taekwondo, OCBC Square, Singapore 397628, Singapore",null,null,null,2025-04-12 16:15:36.361565,2025-04-12 16:15:36.361565,SPORTS_COMPLEX
171,TAMPINES WEST,TAMPINES,EAST REGION,1.3447789,103.9416597,activity.sport_club,null,Onyx Jiujitsu,"Onyx Jiujitsu, Tampines Avenue 1, Singapore 528882, Singapore",null,null,null,2025-04-12 16:15:36.401465,2025-04-12 16:15:36.401465,SPORTS_COMPLEX
1396,JURONG GATEWAY,JURONG EAST,WEST REGION,1.3338009,103.743786,commercial.clothing,null,Cotton On,"Cotton On, 50 Jurong Gateway Road, Singapore 608549, Singapore",null,null,null,2025-04-12 16:20:40.199716,2025-04-12 16:20:40.199716,APPAREL
174,WOODLANDS EAST,WOODLANDS,NORTH REGION,1.4405928,103.8018411,commercial.supermarket,null,Ellyza Frozen Food,"Ellyza Frozen Food, #01-24 Woodlands Avenue 6, Singapore 730678, Singapore",null,null,null,2025-04-12 16:15:43.686442,2025-04-12 16:15:43.686442,SHOPPING
175,JELEBU,BUKIT PANJANG,WEST REGION,1.3785209,103.7639776,commercial.supermarket,null,NTUC Fairprice,"NTUC FairPrice, 17 Petir Road, Singapore 678278, Singapore",null,null,null,2025-04-12 16:15:43.732695,2025-04-12 16:15:43.732695,SHOPPING
176,WOODLANDS EAST,WOODLANDS,NORTH REGION,1.4468922,103.8055002,commercial.supermarket,null,Sheng Siong,"Sheng Siong, 785E Woodlands Rise, Singapore 735785, Singapore",null,null,null,2025-04-12 16:15:43.801556,2025-04-12 16:15:43.801556,SHOPPING
177,NATURE RESERVE,BUKIT PANJANG,WEST REGION,1.36035045,103.767557762424,commercial.supermarket,null,Cold Storage,"Cold Storage, 464-486 Jalan Asas, Singapore 678077, Singapore",null,null,null,2025-04-12 16:15:43.891409,2025-04-12 16:15:43.891409,SHOPPING
182,SENJA,BUKIT PANJANG,WEST REGION,1.3850202,103.7604035,commercial.supermarket,null,NTUC Fairprice,"NTUC FairPrice, 628 Senja Road, Singapore 670628, Singapore",null,null,null,2025-04-12 16:15:44.129881,2025-04-12 16:15:44.129881,SHOPPING
183,WOODGROVE,WOODLANDS,NORTH REGION,1.4290442,103.7811686,commercial.supermarket,null,NTUC FairPrice,"NTUC FairPrice, 30 Woodlands Avenue 1, Singapore 739065, Singapore",null,null,null,2025-04-12 16:15:44.248375,2025-04-12 16:15:44.248375,SHOPPING
184,YISHUN SOUTH,YISHUN,NORTH REGION,1.4180875,103.8410061,commercial.supermarket,null,NTUC FairPrice Finest,"NTUC FairPrice Finest, 598 Yishun Ring Road, Singapore 768698, Singapore",null,null,null,2025-04-12 16:15:44.28097,2025-04-12 16:15:44.28097,SHOPPING
185,SWISS CLUB,BUKIT TIMAH,CENTRAL REGION,1.3361915,103.7868805,commercial.supermarket,null,NTUC Fairprice,"NTUC Fairprice, 15 Binjai Park, Singapore 589824, Singapore",null,null,null,2025-04-12 16:15:44.340813,2025-04-12 16:15:44.340813,SHOPPING
392,MURAI,WESTERN WATER CATCHMENT,WEST REGION,1.3468178,103.6809884,commercial.supermarket,null,Prime Supermarket,"Prime Supermarket, 50 Nanyang Avenue, Singapore 639798, Singapore",null,null,null,2025-04-12 16:16:08.712908,2025-04-12 16:16:08.712908,SHOPPING
187,NATURE RESERVE,BUKIT PANJANG,WEST REGION,1.3593073,103.767650850018,commercial.supermarket,null,Sunnychoice,"Sunnychoice, 434 Upper Bukit Timah Road, Singapore 678072, Singapore",null,null,null,2025-04-12 16:15:44.433681,2025-04-12 16:15:44.433681,SHOPPING
189,CORONATION ROAD,BUKIT TIMAH,CENTRAL REGION,1.3307365,103.7955242,commercial.supermarket,null,Cold Storage,"Cold Storage, 1 Fifth Avenue, Singapore 268802, Singapore",null,null,null,2025-04-12 16:15:44.52348,2025-04-12 16:15:44.52348,SHOPPING
190,ANAK BUKIT,BUKIT TIMAH,CENTRAL REGION,1.3382406,103.7783181,commercial.supermarket,null,NTUC FairPrice,"NTUC FairPrice, 1 Jalan Anak Bukit, Singapore 588996, Singapore",null,null,null,2025-04-12 16:15:44.570456,2025-04-12 16:15:44.570456,SHOPPING
191,SUNSET WAY,CLEMENTI,WEST REGION,1.3220913,103.7702616,commercial.supermarket,null,Grindelwald,"Grindelwald, Block 108 Clementri Street 11, Singapore 120108, Singapore",null,null,null,2025-04-12 16:15:44.62405,2025-04-12 16:15:44.62405,SHOPPING
192,SUNSET WAY,CLEMENTI,WEST REGION,1.3235953,103.7675432,commercial.supermarket,null,Cold Storage,"Cold Storage, 41 Sunset Way, Singapore 597071, Singapore",null,null,null,2025-04-12 16:15:44.684644,2025-04-12 16:15:44.684644,SHOPPING
193,WOODLANDS EAST,WOODLANDS,NORTH REGION,1.4399794,103.8005133,commercial.supermarket,null,NTUC Fairprice,"NTUC FairPrice, 676 Woodlands Drive 71, Singapore 730676, Singapore",null,null,null,2025-04-12 16:15:44.726373,2025-04-12 16:15:44.726373,SHOPPING
194,NORTH COAST,WOODLANDS,NORTH REGION,1.4428927,103.7748706,commercial.supermarket,null,Sheng Siong,"Sheng Siong, 202 Marsiling Drive, Singapore 730202, Singapore",null,null,null,2025-04-12 16:15:44.777639,2025-04-12 16:15:44.777639,SHOPPING
195,HOLLAND ROAD,BUKIT TIMAH,CENTRAL REGION,1.3368871,103.7796645,commercial.supermarket,null,Eagle Wing Mart,"Eagle Wing Mart, 9 King Albert Park, Singapore 598332, Singapore",null,null,null,2025-04-12 16:15:44.819887,2025-04-12 16:15:44.819887,SHOPPING
196,SENJA,BUKIT PANJANG,WEST REGION,1.3878258,103.763142,commercial.supermarket,null,Sheng Siong,"Sheng Siong, 643 Senja Close, Singapore 670643, Singapore",null,null,null,2025-04-12 16:15:44.865128,2025-04-12 16:15:44.865128,SHOPPING
197,SENJA,BUKIT PANJANG,WEST REGION,1.3869539,103.7616549,commercial.supermarket,null,FairPrice Senja Heights,"FairPrice Senja Heights, 642 Senja Close, Singapore 670642, Singapore",null,null,null,2025-04-12 16:15:44.906301,2025-04-12 16:15:44.906301,SHOPPING
198,DAIRY FARM,BUKIT PANJANG,WEST REGION,1.3655022,103.7750303,commercial.supermarket,null,NTUC Fairprice,"NTUC Fairprice, Petir Road, Singapore 679056, Singapore",null,null,null,2025-04-12 16:15:44.974227,2025-04-12 16:15:44.974227,SHOPPING
199,SEMBAWANG SPRINGS,SEMBAWANG,NORTH REGION,1.441726,103.8250677,commercial.supermarket,null,Giant,"Giant, #B1-25 Jalan Jeruju, Singapore 758459, Singapore",null,null,null,2025-04-12 16:15:45.037668,2025-04-12 16:15:45.037668,SHOPPING
200,SEMBAWANG CENTRAL,SEMBAWANG,NORTH REGION,1.4495608,103.8186291,commercial.supermarket,null,NTUC FairPrice,"NTUC FairPrice, 355 Sembawang Way, Singapore 750355, Singapore",null,null,null,2025-04-12 16:15:45.07354,2025-04-12 16:15:45.07354,SHOPPING
201,SEMBAWANG CENTRAL,SEMBAWANG,NORTH REGION,1.4479385,103.8195511,commercial.supermarket,null,NTUC FairPrice,"NTUC FairPrice, 30 Sembawang Drive, Singapore 757713, Singapore",null,null,null,2025-04-12 16:15:45.129998,2025-04-12 16:15:45.129998,SHOPPING
202,WOODLANDS SOUTH,WOODLANDS,NORTH REGION,1.4309761,103.7942332,commercial.supermarket,null,Shop N Save,"Shop N Save, Woodlands Drive 44, Singapore 730548, Singapore",null,null,null,2025-04-12 16:15:45.174264,2025-04-12 16:15:45.174264,SHOPPING
203,ANAK BUKIT,BUKIT TIMAH,CENTRAL REGION,1.3342127,103.7766715,commercial.supermarket,null,Popular,"Popular, 535 Clementi Road, Singapore 599489, Singapore",null,null,null,2025-04-12 16:15:45.215766,2025-04-12 16:15:45.215766,SHOPPING
205,WOODLANDS REGIONAL CENTRE,WOODLANDS,NORTH REGION,1.4353183,103.7865131,commercial.supermarket,null,NTUC FairPrice,"NTUC FairPrice, Woodlands Square, Singapore 730900, Singapore",null,null,null,2025-04-12 16:15:45.328821,2025-04-12 16:15:45.328821,SHOPPING
206,WOODLANDS EAST,WOODLANDS,NORTH REGION,1.4403979,103.8005616,commercial.supermarket,null,Giant,"Giant, #01-05 Woodlands (Ave 7) Park Connector, Singapore 738344, Singapore",null,null,null,2025-04-12 16:15:45.373531,2025-04-12 16:15:45.373531,SHOPPING
207,WOODLANDS EAST,WOODLANDS,NORTH REGION,1.4456477,103.7979298,commercial.supermarket,null,Giant,"Giant, #01-34 Woodlands Avenue 6, Singapore 730768, Singapore",null,null,null,2025-04-12 16:15:45.416717,2025-04-12 16:15:45.416717,SHOPPING
10547,ANAK BUKIT,BUKIT TIMAH,CENTRAL REGION,1.3404755,103.773294,commercial.health_and_beauty,null,78 Spa,"78 Spa, 78 Jalan Jurong Kechil, Singapore 590018, Singapore",null,null,null,2025-04-12 16:46:16.941832,2025-04-12 16:46:16.941832,PERSONAL_CARE
10550,ANAK BUKIT,BUKIT TIMAH,CENTRAL REGION,1.3410189,103.7726008,commercial.health_and_beauty,null,Le Zen Spa,"Le Zen Spa, Lorong Kilat, Singapore 596569, Singapore",null,null,null,2025-04-12 16:46:17.03964,2025-04-12 16:46:17.03964,PERSONAL_CARE
597,FLORA DRIVE,PASIR RIS,EAST REGION,1.3599355,103.9696555,commercial.supermarket,null,NTUC FairPrice,"NTUC FairPrice, Upper Changi Road North, Singapore 507714, Singapore",null,null,null,2025-04-12 16:16:24.207194,2025-04-12 16:16:24.207194,SHOPPING
565,KEMBANGAN,BEDOK,EAST REGION,1.3242903,103.9238735,commercial.supermarket,null,NTUC FairPrice,"NTUC FairPrice, 29B Chai Chee Road, Singapore 462029, Singapore",null,null,null,2025-04-12 16:16:23.058692,2025-04-12 16:16:23.058692,SHOPPING
14574,ANAK BUKIT,BUKIT TIMAH,CENTRAL REGION,1.3424343,103.7767174,catering.cafe,null,Four Paws,"Four Paws, Bukit Timah Link, Singapore 588177, Singapore",null,null,null,2025-04-12 16:51:40.989267,2025-04-12 16:51:40.989267,CAFE
10559,ANAK BUKIT,BUKIT TIMAH,CENTRAL REGION,1.3419818,103.7750173,commercial.health_and_beauty,null,Le Spa,"Le Spa, Chun Tin Road, Singapore 599595, Singapore",null,null,null,2025-04-12 16:46:17.355521,2025-04-12 16:46:17.355521,PERSONAL_CARE
10560,ANAK BUKIT,BUKIT TIMAH,CENTRAL REGION,1.3405042,103.7730237,commercial.health_and_beauty,null,Hug in the spa,"Hug in the spa, 88 Jalan Jurong Kechil, Singapore 590018, Singapore",null,null,null,2025-04-12 16:46:17.383721,2025-04-12 16:46:17.383721,PERSONAL_CARE
210,MIDVIEW,WOODLANDS,NORTH REGION,1.4385636,103.7952187,commercial.supermarket,null,NTUC FairPrice,"NTUC FairPrice, Woodlands (Ave 7) Park Connector, Singapore 731890, Singapore",null,null,null,2025-04-12 16:15:45.534766,2025-04-12 16:15:45.534766,SHOPPING
